{
  "rows" : [
    {
      "Name" : "生麦小学校",
      "Ward" : "鶴見区",
      "Notes" : "被災した住民の避難生活の場所、情報受伝達、備蓄機能を備えた拠点です。",
      "Address" : "生麦四丁目15番1号",
      "lng" : 139.6707799,
      "lat" : 35.4956747
    },
    {
      "Name" : "豊岡小学校",
      "Ward" : "鶴見区",
      "Notes" : "被災した住民の避難生活の場所、情報受伝達、備蓄機能を備えた拠点です。",
      "Address" : "豊岡町27番地1",
      "lng" : 139.6748625,
      "lat" : 35.5126198
    },
    {
      "Name" : "鶴見小学校",
      "Ward" : "鶴見区",
      "Notes" : "被災した住民の避難生活の場所、情報受伝達、備蓄機能を備えた拠点です。",
      "Address" : "鶴見中央三丁目19番1号",
      "lng" : 139.6840812,
      "lat" : 35.50924240000001
    },
    {
      "Name" : "潮田小学校",
      "Ward" : "鶴見区",
      "Notes" : "被災した住民の避難生活の場所、情報受伝達、備蓄機能を備えた拠点です。",
      "Address" : "向井町3丁目82番地1",
      "lng" : 139.6905863,
      "lat" : 35.5060928
    },
    {
      "Name" : "下野谷小学校",
      "Ward" : "鶴見区",
      "Notes" : "被災した住民の避難生活の場所、情報受伝達、備蓄機能を備えた拠点です。",
      "Address" : "下野谷町2丁目49番地",
      "lng" : 139.6814456,
      "lat" : 35.5001603
    },
    {
      "Name" : "市場小学校",
      "Ward" : "鶴見区",
      "Notes" : "被災した住民の避難生活の場所、情報受伝達、備蓄機能を備えた拠点です。",
      "Address" : "元宮一丁目13番1号",
      "lng" : 139.6826809,
      "lat" : 35.5232182
    },
    {
      "Name" : "平安小学校",
      "Ward" : "鶴見区",
      "Notes" : "被災した住民の避難生活の場所、情報受伝達、備蓄機能を備えた拠点です。",
      "Address" : "平安町2丁目9番地1",
      "lng" : 139.6922554,
      "lat" : 35.5121974
    },
    {
      "Name" : "末吉小学校",
      "Ward" : "鶴見区",
      "Notes" : "被災した住民の避難生活の場所、情報受伝達、備蓄機能を備えた拠点です。",
      "Address" : "上末吉一丁目9番1号",
      "lng" : 139.6695848,
      "lat" : 35.5251904
    },
    {
      "Name" : "上末吉小学校",
      "Ward" : "鶴見区",
      "Notes" : "被災した住民の避難生活の場所、情報受伝達、備蓄機能を備えた拠点です。",
      "Address" : "上末吉五丁目24番1号",
      "lng" : 139.6619491,
      "lat" : 35.534095
    },
    {
      "Name" : "下末吉小学校",
      "Ward" : "鶴見区",
      "Notes" : "被災した住民の避難生活の場所、情報受伝達、備蓄機能を備えた拠点です。",
      "Address" : "下末吉二丁目25番6号",
      "lng" : 139.675101,
      "lat" : 35.5228517
    },
    {
      "Name" : "旭小学校",
      "Ward" : "鶴見区",
      "Notes" : "被災した住民の避難生活の場所、情報受伝達、備蓄機能を備えた拠点です。",
      "Address" : "北寺尾四丁目25番1号",
      "lng" : 139.6548225,
      "lat" : 35.5162251
    },
    {
      "Name" : "東台小学校",
      "Ward" : "鶴見区",
      "Notes" : "被災した住民の避難生活の場所、情報受伝達、備蓄機能を備えた拠点です。",
      "Address" : "東寺尾東台12番地1",
      "lng" : 139.6644331,
      "lat" : 35.5037905
    },
    {
      "Name" : "岸谷小学校",
      "Ward" : "鶴見区",
      "Notes" : "被災した住民の避難生活の場所、情報受伝達、備蓄機能を備えた拠点です。",
      "Address" : "岸谷一丁目6番1号",
      "lng" : 139.6617251,
      "lat" : 35.4935387
    },
    {
      "Name" : "矢向小学校",
      "Ward" : "鶴見区",
      "Notes" : "被災した住民の避難生活の場所、情報受伝達、備蓄機能を備えた拠点です。",
      "Address" : "矢向三丁目8番1号",
      "lng" : 139.6790531,
      "lat" : 35.5334196
    },
    {
      "Name" : "入船小学校",
      "Ward" : "鶴見区",
      "Notes" : "被災した住民の避難生活の場所、情報受伝達、備蓄機能を備えた拠点です。",
      "Address" : "浜町1丁目1番地1",
      "lng" : 130.8112985,
      "lat" : 33.9054588
    },
    {
      "Name" : "寺尾小学校",
      "Ward" : "鶴見区",
      "Notes" : "被災した住民の避難生活の場所、情報受伝達、備蓄機能を備えた拠点です。",
      "Address" : "東寺尾五丁目19番1号",
      "lng" : 139.6576948,
      "lat" : 35.5042349
    },
    {
      "Name" : "汐入小学校",
      "Ward" : "鶴見区",
      "Notes" : "被災した住民の避難生活の場所、情報受伝達、備蓄機能を備えた拠点です。",
      "Address" : "汐入町2丁目36番地",
      "lng" : 139.6611236,
      "lat" : 35.2790971
    },
    {
      "Name" : "馬場小学校",
      "Ward" : "鶴見区",
      "Notes" : "被災した住民の避難生活の場所、情報受伝達、備蓄機能を備えた拠点です。",
      "Address" : "馬場七丁目20番1号",
      "lng" : 139.6443209,
      "lat" : 35.5101783
    },
    {
      "Name" : "駒岡小学校",
      "Ward" : "鶴見区",
      "Notes" : "被災した住民の避難生活の場所、情報受伝達、備蓄機能を備えた拠点です。",
      "Address" : "駒岡三丁目14番1号",
      "lng" : 139.6548693,
      "lat" : 35.5291541
    },
    {
      "Name" : "獅子ケ谷小学校",
      "Ward" : "鶴見区",
      "Notes" : "被災した住民の避難生活の場所、情報受伝達、備蓄機能を備えた拠点です。",
      "Address" : "獅子ケ谷一丁目19番1号",
      "lng" : 139.6508284,
      "lat" : 35.5169027
    },
    {
      "Name" : "上寺尾小学校",
      "Ward" : "鶴見区",
      "Notes" : "被災した住民の避難生活の場所、情報受伝達、備蓄機能を備えた拠点です。",
      "Address" : "馬場三丁目21番21号",
      "lng" : 139.6540117,
      "lat" : 35.5071595
    },
    {
      "Name" : "新鶴見小学校",
      "Ward" : "鶴見区",
      "Notes" : "被災した住民の避難生活の場所、情報受伝達、備蓄機能を備えた拠点です。",
      "Address" : "江ケ崎町2番地1",
      "lng" : 139.6775256,
      "lat" : 35.5318671
    },
    {
      "Name" : "市場中学校",
      "Ward" : "鶴見区",
      "Notes" : "被災した住民の避難生活の場所、情報受伝達、備蓄機能を備えた拠点です。",
      "Address" : "市場下町1番地1",
      "lng" : 139.68332,
      "lat" : 35.5152527
    },
    {
      "Name" : "矢向中学校",
      "Ward" : "鶴見区",
      "Notes" : "被災した住民の避難生活の場所、情報受伝達、備蓄機能を備えた拠点です。",
      "Address" : "矢向一丁目8番24号",
      "lng" : 139.6751008,
      "lat" : 35.52923699999999
    },
    {
      "Name" : "鶴見中学校",
      "Ward" : "鶴見区",
      "Notes" : "被災した住民の避難生活の場所、情報受伝達、備蓄機能を備えた拠点です。",
      "Address" : "鶴見中央三丁目14番1号",
      "lng" : 139.6844756,
      "lat" : 35.5099923
    },
    {
      "Name" : "末吉中学校",
      "Ward" : "鶴見区",
      "Notes" : "被災した住民の避難生活の場所、情報受伝達、備蓄機能を備えた拠点です。",
      "Address" : "下末吉六丁目13番1号",
      "lng" : 139.6643103,
      "lat" : 35.5234546
    },
    {
      "Name" : "寺尾中学校",
      "Ward" : "鶴見区",
      "Notes" : "被災した住民の避難生活の場所、情報受伝達、備蓄機能を備えた拠点です。",
      "Address" : "北寺尾三丁目13番1号",
      "lng" : 139.6591026,
      "lat" : 35.5198857
    },
    {
      "Name" : "生麦中学校",
      "Ward" : "鶴見区",
      "Notes" : "被災した住民の避難生活の場所、情報受伝達、備蓄機能を備えた拠点です。",
      "Address" : "岸谷二丁目1番1号",
      "lng" : 139.6593531,
      "lat" : 35.4933776
    },
    {
      "Name" : "潮田中学校",
      "Ward" : "鶴見区",
      "Notes" : "被災した住民の避難生活の場所、情報受伝達、備蓄機能を備えた拠点です。",
      "Address" : "向井町4丁目83番地",
      "lng" : 139.6916889,
      "lat" : 35.5066899
    },
    {
      "Name" : "寛政中学校",
      "Ward" : "鶴見区",
      "Notes" : "被災した住民の避難生活の場所、情報受伝達、備蓄機能を備えた拠点です。",
      "Address" : "寛政町23番地1",
      "lng" : 139.6996022,
      "lat" : 35.5018876
    },
    {
      "Name" : "上の宮中学校",
      "Ward" : "鶴見区",
      "Notes" : "被災した住民の避難生活の場所、情報受伝達、備蓄機能を備えた拠点です。",
      "Address" : "上の宮一丁目26番33号",
      "lng" : 139.6389824,
      "lat" : 35.5122141
    },
    {
      "Name" : "三ツ沢小学校",
      "Ward" : "神奈川区",
      "Notes" : "被災した住民の避難生活の場所、情報受伝達、備蓄機能を備えた拠点です。",
      "Address" : "三ッ沢中町4番地17",
      "lng" : 139.6085025,
      "lat" : 35.476015
    },
    {
      "Name" : "青木小学校",
      "Ward" : "神奈川区",
      "Notes" : "被災した住民の避難生活の場所、情報受伝達、備蓄機能を備えた拠点です。",
      "Address" : "桐畑17番地",
      "lng" : 139.6256977,
      "lat" : 35.4735515
    },
    {
      "Name" : "二谷小学校",
      "Ward" : "神奈川区",
      "Notes" : "被災した住民の避難生活の場所、情報受伝達、備蓄機能を備えた拠点です。",
      "Address" : "平川町11番地1",
      "lng" : 139.6285169,
      "lat" : 35.4806812
    },
    {
      "Name" : "幸ケ谷小学校",
      "Ward" : "神奈川区",
      "Notes" : "被災した住民の避難生活の場所、情報受伝達、備蓄機能を備えた拠点です。",
      "Address" : "幸ケ谷1番地1",
      "lng" : 139.630614,
      "lat" : 35.4715073
    },
    {
      "Name" : "浦島小学校",
      "Ward" : "神奈川区",
      "Notes" : "被災した住民の避難生活の場所、情報受伝達、備蓄機能を備えた拠点です。",
      "Address" : "浦島丘16番地",
      "lng" : 139.6367384,
      "lat" : 35.4839587
    },
    {
      "Name" : "子安小学校",
      "Ward" : "神奈川区",
      "Notes" : "被災した住民の避難生活の場所、情報受伝達、備蓄機能を備えた拠点です。",
      "Address" : "新子安一丁目24番1号",
      "lng" : 139.6530231,
      "lat" : 35.4883391
    },
    {
      "Name" : "白幡小学校",
      "Ward" : "神奈川区",
      "Notes" : "被災した住民の避難生活の場所、情報受伝達、備蓄機能を備えた拠点です。",
      "Address" : "白幡上町11番地1",
      "lng" : 139.6314833,
      "lat" : 35.4915578
    },
    {
      "Name" : "神橋小学校",
      "Ward" : "神奈川区",
      "Notes" : "被災した住民の避難生活の場所、情報受伝達、備蓄機能を備えた拠点です。",
      "Address" : "六角橋二丁目34番19号",
      "lng" : 139.6208177,
      "lat" : 35.4902467
    },
    {
      "Name" : "池上小学校",
      "Ward" : "神奈川区",
      "Notes" : "被災した住民の避難生活の場所、情報受伝達、備蓄機能を備えた拠点です。",
      "Address" : "菅田町1393番地",
      "lng" : 139.5857801,
      "lat" : 35.4964375
    },
    {
      "Name" : "西寺尾小学校",
      "Ward" : "神奈川区",
      "Notes" : "被災した住民の避難生活の場所、情報受伝達、備蓄機能を備えた拠点です。",
      "Address" : "西寺尾二丁目5番1号",
      "lng" : 139.6454654,
      "lat" : 35.4973492
    },
    {
      "Name" : "西寺尾第二小学校",
      "Ward" : "神奈川区",
      "Notes" : "被災した住民の避難生活の場所、情報受伝達、備蓄機能を備えた拠点です。",
      "Address" : "西寺尾二丁目15番1号",
      "lng" : 139.6464709,
      "lat" : 35.4992601
    },
    {
      "Name" : "大口台小学校",
      "Ward" : "神奈川区",
      "Notes" : "被災した住民の避難生活の場所、情報受伝達、備蓄機能を備えた拠点です。",
      "Address" : "大口仲町460番地",
      "lng" : 139.6377661,
      "lat" : 35.4954797
    },
    {
      "Name" : "斎藤分小学校",
      "Ward" : "神奈川区",
      "Notes" : "被災した住民の避難生活の場所、情報受伝達、備蓄機能を備えた拠点です。",
      "Address" : "斎藤分町34番地1",
      "lng" : 139.6232619,
      "lat" : 35.4824115
    },
    {
      "Name" : "神奈川小学校",
      "Ward" : "神奈川区",
      "Notes" : "被災した住民の避難生活の場所、情報受伝達、備蓄機能を備えた拠点です。",
      "Address" : "東神奈川二丁目35番1号",
      "lng" : 139.6356607,
      "lat" : 35.4775566
    },
    {
      "Name" : "神大寺小学校",
      "Ward" : "神奈川区",
      "Notes" : "被災した住民の避難生活の場所、情報受伝達、備蓄機能を備えた拠点です。",
      "Address" : "神大寺三丁目34番1号",
      "lng" : 139.6088885,
      "lat" : 35.4879025
    },
    {
      "Name" : "中丸小学校",
      "Ward" : "神奈川区",
      "Notes" : "被災した住民の避難生活の場所、情報受伝達、備蓄機能を備えた拠点です。",
      "Address" : "神大寺三丁目17番1号",
      "lng" : 139.6029615,
      "lat" : 35.4822865
    },
    {
      "Name" : "羽沢小学校",
      "Ward" : "神奈川区",
      "Notes" : "被災した住民の避難生活の場所、情報受伝達、備蓄機能を備えた拠点です。",
      "Address" : "羽沢町935番地",
      "lng" : 139.5870661,
      "lat" : 35.4885302
    },
    {
      "Name" : "菅田小学校",
      "Ward" : "神奈川区",
      "Notes" : "被災した住民の避難生活の場所、情報受伝達、備蓄機能を備えた拠点です。",
      "Address" : "菅田町674番地",
      "lng" : 139.5781778,
      "lat" : 35.4962068
    },
    {
      "Name" : "南神大寺小学校",
      "Ward" : "神奈川区",
      "Notes" : "被災した住民の避難生活の場所、情報受伝達、備蓄機能を備えた拠点です。",
      "Address" : "神大寺二丁目9番16号",
      "lng" : 139.6122381,
      "lat" : 35.4853139
    },
    {
      "Name" : "栗田谷中学校",
      "Ward" : "神奈川区",
      "Notes" : "被災した住民の避難生活の場所、情報受伝達、備蓄機能を備えた拠点です。",
      "Address" : "栗田谷3番地1",
      "lng" : 139.6243506,
      "lat" : 35.4770566
    },
    {
      "Name" : "浦島丘中学校",
      "Ward" : "神奈川区",
      "Notes" : "被災した住民の避難生活の場所、情報受伝達、備蓄機能を備えた拠点です。",
      "Address" : "白幡東町27番地1",
      "lng" : 139.6410186,
      "lat" : 35.4858919
    },
    {
      "Name" : "錦台中学校",
      "Ward" : "神奈川区",
      "Notes" : "被災した住民の避難生活の場所、情報受伝達、備蓄機能を備えた拠点です。",
      "Address" : "西寺尾三丁目10番1号",
      "lng" : 139.651101,
      "lat" : 35.4961022
    },
    {
      "Name" : "東小学校",
      "Ward" : "西区",
      "Notes" : "被災した住民の避難生活の場所、情報受伝達、備蓄機能を備えた拠点です。",
      "Address" : "東ケ丘59番地",
      "lng" : 139.623771,
      "lat" : 35.4433912
    },
    {
      "Name" : "稲荷台小学校",
      "Ward" : "西区",
      "Notes" : "被災した住民の避難生活の場所、情報受伝達、備蓄機能を備えた拠点です。",
      "Address" : "藤棚町2丁目220番地",
      "lng" : 139.6123582,
      "lat" : 35.4488544
    },
    {
      "Name" : "西前小学校",
      "Ward" : "西区",
      "Notes" : "被災した住民の避難生活の場所、情報受伝達、備蓄機能を備えた拠点です。",
      "Address" : "中央二丁目27番7号",
      "lng" : 139.7862042,
      "lat" : 35.695248
    },
    {
      "Name" : "平沼小学校",
      "Ward" : "西区",
      "Notes" : "被災した住民の避難生活の場所、情報受伝達、備蓄機能を備えた拠点です。",
      "Address" : "平沼二丁目11番36号",
      "lng" : 139.6157103,
      "lat" : 35.4572006
    },
    {
      "Name" : "宮谷小学校",
      "Ward" : "西区",
      "Notes" : "被災した住民の避難生活の場所、情報受伝達、備蓄機能を備えた拠点です。",
      "Address" : "宮ケ谷6番地7",
      "lng" : 139.6084081,
      "lat" : 35.4663079
    },
    {
      "Name" : "戸部小学校",
      "Ward" : "西区",
      "Notes" : "被災した住民の避難生活の場所、情報受伝達、備蓄機能を備えた拠点です。",
      "Address" : "伊勢町2丁目115番地",
      "lng" : 139.6219125,
      "lat" : 35.4531178
    },
    {
      "Name" : "一本松小学校",
      "Ward" : "西区",
      "Notes" : "被災した住民の避難生活の場所、情報受伝達、備蓄機能を備えた拠点です。",
      "Address" : "西戸部町1丁目115番地",
      "lng" : 139.6189047,
      "lat" : 35.4468546
    },
    {
      "Name" : "浅間台小学校",
      "Ward" : "西区",
      "Notes" : "被災した住民の避難生活の場所、情報受伝達、備蓄機能を備えた拠点です。",
      "Address" : "浅間町3丁目237番地",
      "lng" : 139.6058808,
      "lat" : 35.4618667
    },
    {
      "Name" : "岡野中学校",
      "Ward" : "西区",
      "Notes" : "被災した住民の避難生活の場所、情報受伝達、備蓄機能を備えた拠点です。",
      "Address" : "岡野二丁目14番1号",
      "lng" : 139.6121773,
      "lat" : 35.461839
    },
    {
      "Name" : "西中学校",
      "Ward" : "西区",
      "Notes" : "被災した住民の避難生活の場所、情報受伝達、備蓄機能を備えた拠点です。",
      "Address" : "西戸部町3丁目286番地",
      "lng" : 139.6184768,
      "lat" : 35.4520346
    },
    {
      "Name" : "老松中学校",
      "Ward" : "西区",
      "Notes" : "被災した住民の避難生活の場所、情報受伝達、備蓄機能を備えた拠点です。",
      "Address" : "老松町27番地",
      "lng" : 139.6246097,
      "lat" : 35.4482878
    },
    {
      "Name" : "軽井沢中学校",
      "Ward" : "西区",
      "Notes" : "被災した住民の避難生活の場所、情報受伝達、備蓄機能を備えた拠点です。",
      "Address" : "北軽井沢24番地",
      "lng" : 139.609594,
      "lat" : 35.4689881
    },
    {
      "Name" : "本町小学校",
      "Ward" : "中区",
      "Notes" : "被災した住民の避難生活の場所、情報受伝達、備蓄機能を備えた拠点です。",
      "Address" : "花咲町3丁目86番地",
      "lng" : 139.6286121,
      "lat" : 35.4507125
    },
    {
      "Name" : "山元小学校",
      "Ward" : "中区",
      "Notes" : "被災した住民の避難生活の場所、情報受伝達、備蓄機能を備えた拠点です。",
      "Address" : "山元町3丁目152番地",
      "lng" : 139.6380203,
      "lat" : 35.4281405
    },
    {
      "Name" : "元街小学校",
      "Ward" : "中区",
      "Notes" : "被災した住民の避難生活の場所、情報受伝達、備蓄機能を備えた拠点です。",
      "Address" : "山手町36番地",
      "lng" : 139.6488919,
      "lat" : 35.4362893
    },
    {
      "Name" : "北方小学校",
      "Ward" : "中区",
      "Notes" : "被災した住民の避難生活の場所、情報受伝達、備蓄機能を備えた拠点です。",
      "Address" : "諏訪町29番地",
      "lng" : 139.2874912,
      "lat" : 35.6776566
    },
    {
      "Name" : "大鳥小学校",
      "Ward" : "中区",
      "Notes" : "被災した住民の避難生活の場所、情報受伝達、備蓄機能を備えた拠点です。",
      "Address" : "本牧町1丁目251番地",
      "lng" : 139.6569442,
      "lat" : 35.4273045
    },
    {
      "Name" : "間門小学校",
      "Ward" : "中区",
      "Notes" : "被災した住民の避難生活の場所、情報受伝達、備蓄機能を備えた拠点です。",
      "Address" : "本牧間門29番地1",
      "lng" : 139.6554832,
      "lat" : 35.4179531
    },
    {
      "Name" : "立野小学校",
      "Ward" : "中区",
      "Notes" : "被災した住民の避難生活の場所、情報受伝達、備蓄機能を備えた拠点です。",
      "Address" : "立野76番地",
      "lng" : 139.6450616,
      "lat" : 35.4271101
    },
    {
      "Name" : "本牧南小学校",
      "Ward" : "中区",
      "Notes" : "被災した住民の避難生活の場所、情報受伝達、備蓄機能を備えた拠点です。",
      "Address" : "本牧元町44番地1",
      "lng" : 139.6683959,
      "lat" : 35.4164614
    },
    {
      "Name" : "本牧小学校",
      "Ward" : "中区",
      "Notes" : "被災した住民の避難生活の場所、情報受伝達、備蓄機能を備えた拠点です。",
      "Address" : "本牧和田5番地1",
      "lng" : 139.6619715,
      "lat" : 35.4246409
    },
    {
      "Name" : "横浜吉田中学校",
      "Ward" : "中区",
      "Notes" : "被災した住民の避難生活の場所、情報受伝達、備蓄機能を備えた拠点です。",
      "Address" : "羽衣町3丁目84番地",
      "lng" : 139.6328954,
      "lat" : 35.4429996
    },
    {
      "Name" : "港中学校",
      "Ward" : "中区",
      "Notes" : "被災した住民の避難生活の場所、情報受伝達、備蓄機能を備えた拠点です。",
      "Address" : "山下町241番地",
      "lng" : 139.6431004,
      "lat" : 35.4413164
    },
    {
      "Name" : "仲尾台中学校",
      "Ward" : "中区",
      "Notes" : "被災した住民の避難生活の場所、情報受伝達、備蓄機能を備えた拠点です。",
      "Address" : "仲尾台23番地",
      "lng" : 139.6451171,
      "lat" : 35.4256214
    },
    {
      "Name" : "みなと総合高等学校",
      "Ward" : "中区",
      "Notes" : "被災した住民の避難生活の場所、情報受伝達、備蓄機能を備えた拠点です。",
      "Address" : "山下町231番地",
      "lng" : 139.6424032,
      "lat" : 35.4418747
    },
    {
      "Name" : "南吉田小学校",
      "Ward" : "南区",
      "Notes" : "被災した住民の避難生活の場所、情報受伝達、備蓄機能を備えた拠点です。",
      "Address" : "高根町2丁目14番地",
      "lng" : 139.6266571,
      "lat" : 35.4366087
    },
    {
      "Name" : "石川小学校",
      "Ward" : "南区",
      "Notes" : "被災した住民の避難生活の場所、情報受伝達、備蓄機能を備えた拠点です。",
      "Address" : "中村町1丁目66番地",
      "lng" : 139.6357344,
      "lat" : 35.4344256
    },
    {
      "Name" : "中村小学校",
      "Ward" : "南区",
      "Notes" : "被災した住民の避難生活の場所、情報受伝達、備蓄機能を備えた拠点です。",
      "Address" : "中村町4丁目269番地1",
      "lng" : 139.6257933,
      "lat" : 35.4329425
    },
    {
      "Name" : "日枝小学校",
      "Ward" : "南区",
      "Notes" : "被災した住民の避難生活の場所、情報受伝達、備蓄機能を備えた拠点です。",
      "Address" : "山王町5丁目31番地",
      "lng" : 139.6166247,
      "lat" : 35.4355921
    },
    {
      "Name" : "蒔田小学校",
      "Ward" : "南区",
      "Notes" : "被災した住民の避難生活の場所、情報受伝達、備蓄機能を備えた拠点です。",
      "Address" : "蒔田町1020番地",
      "lng" : 139.6134306,
      "lat" : 35.4257324
    },
    {
      "Name" : "大岡小学校",
      "Ward" : "南区",
      "Notes" : "被災した住民の避難生活の場所、情報受伝達、備蓄機能を備えた拠点です。",
      "Address" : "大橋町3丁目49番地",
      "lng" : 139.6007766,
      "lat" : 35.4259573
    },
    {
      "Name" : "井土ケ谷小学校",
      "Ward" : "南区",
      "Notes" : "被災した住民の避難生活の場所、情報受伝達、備蓄機能を備えた拠点です。",
      "Address" : "井土ケ谷上町2番地1",
      "lng" : 139.5996129,
      "lat" : 35.4331091
    },
    {
      "Name" : "永田小学校",
      "Ward" : "南区",
      "Notes" : "被災した住民の避難生活の場所、情報受伝達、備蓄機能を備えた拠点です。",
      "Address" : "永田北二丁目6番12号",
      "lng" : 139.5915722,
      "lat" : 35.4355754
    },
    {
      "Name" : "南太田小学校",
      "Ward" : "南区",
      "Notes" : "被災した住民の避難生活の場所、情報受伝達、備蓄機能を備えた拠点です。",
      "Address" : "南太田一丁目17番1号",
      "lng" : 139.6110032,
      "lat" : 35.4354727
    },
    {
      "Name" : "太田小学校",
      "Ward" : "南区",
      "Notes" : "被災した住民の避難生活の場所、情報受伝達、備蓄機能を備えた拠点です。",
      "Address" : "三春台42番地",
      "lng" : 139.6175967,
      "lat" : 35.440972
    },
    {
      "Name" : "南小学校",
      "Ward" : "南区",
      "Notes" : "被災した住民の避難生活の場所、情報受伝達、備蓄機能を備えた拠点です。",
      "Address" : "中里一丁目6番16号",
      "lng" : 139.5992546,
      "lat" : 35.4190804
    },
    {
      "Name" : "六つ川小学校",
      "Ward" : "南区",
      "Notes" : "被災した住民の避難生活の場所、情報受伝達、備蓄機能を備えた拠点です。",
      "Address" : "六ツ川三丁目4番12号",
      "lng" : 139.5840256,
      "lat" : 35.429015
    },
    {
      "Name" : "藤の木小学校",
      "Ward" : "南区",
      "Notes" : "被災した住民の避難生活の場所、情報受伝達、備蓄機能を備えた拠点です。",
      "Address" : "大岡四丁目10番1号",
      "lng" : 139.6048317,
      "lat" : 35.4124119
    },
    {
      "Name" : "永田台小学校",
      "Ward" : "南区",
      "Notes" : "被災した住民の避難生活の場所、情報受伝達、備蓄機能を備えた拠点です。",
      "Address" : "永田みなみ台6番地1",
      "lng" : 139.5893891,
      "lat" : 35.4328397
    },
    {
      "Name" : "六つ川台小学校",
      "Ward" : "南区",
      "Notes" : "被災した住民の避難生活の場所、情報受伝達、備蓄機能を備えた拠点です。",
      "Address" : "六ツ川三丁目65番9号",
      "lng" : 139.5809147,
      "lat" : 35.4285817
    },
    {
      "Name" : "別所小学校",
      "Ward" : "南区",
      "Notes" : "被災した住民の避難生活の場所、情報受伝達、備蓄機能を備えた拠点です。",
      "Address" : "別所六丁目3番1号",
      "lng" : 139.5817869,
      "lat" : 35.4170109
    },
    {
      "Name" : "六つ川西小学校",
      "Ward" : "南区",
      "Notes" : "被災した住民の避難生活の場所、情報受伝達、備蓄機能を備えた拠点です。",
      "Address" : "六ツ川二丁目156番1号",
      "lng" : 139.5775483,
      "lat" : 35.4249015
    },
    {
      "Name" : "平楽中学校",
      "Ward" : "南区",
      "Notes" : "被災した住民の避難生活の場所、情報受伝達、備蓄機能を備えた拠点です。",
      "Address" : "平楽1番地",
      "lng" : 139.6333262,
      "lat" : 35.4312844
    },
    {
      "Name" : "共進中学校",
      "Ward" : "南区",
      "Notes" : "被災した住民の避難生活の場所、情報受伝達、備蓄機能を備えた拠点です。",
      "Address" : "東蒔田町1番地5",
      "lng" : 139.6168358,
      "lat" : 35.4326926
    },
    {
      "Name" : "南中学校",
      "Ward" : "南区",
      "Notes" : "被災した住民の避難生活の場所、情報受伝達、備蓄機能を備えた拠点です。",
      "Address" : "六ツ川一丁目14番",
      "lng" : 139.5979797,
      "lat" : 35.4269266
    },
    {
      "Name" : "蒔田中学校",
      "Ward" : "南区",
      "Notes" : "被災した住民の避難生活の場所、情報受伝達、備蓄機能を備えた拠点です。",
      "Address" : "花之木町2番地45",
      "lng" : 139.6092228,
      "lat" : 35.43199540000001
    },
    {
      "Name" : "六ツ川中学校",
      "Ward" : "南区",
      "Notes" : "被災した住民の避難生活の場所、情報受伝達、備蓄機能を備えた拠点です。",
      "Address" : "六ツ川三丁目81番11号",
      "lng" : 139.5783843,
      "lat" : 35.4293426
    },
    {
      "Name" : "南が丘中学校",
      "Ward" : "南区",
      "Notes" : "被災した住民の避難生活の場所、情報受伝達、備蓄機能を備えた拠点です。",
      "Address" : "別所三丁目6番1号",
      "lng" : 139.5907945,
      "lat" : 35.413867
    },
    {
      "Name" : "永田中学校",
      "Ward" : "南区",
      "Notes" : "被災した住民の避難生活の場所、情報受伝達、備蓄機能を備えた拠点です。",
      "Address" : "永田みなみ台7番地1",
      "lng" : 139.5872365,
      "lat" : 35.4332201
    },
    {
      "Name" : "藤の木中学校",
      "Ward" : "南区",
      "Notes" : "被災した住民の避難生活の場所、情報受伝達、備蓄機能を備えた拠点です。",
      "Address" : "大岡四丁目44番1号",
      "lng" : 139.6059815,
      "lat" : 35.4107761
    },
    {
      "Name" : "日野小学校",
      "Ward" : "港南区",
      "Notes" : "被災した住民の避難生活の場所、情報受伝達、備蓄機能を備えた拠点です。",
      "Address" : "日野七丁目11番1号",
      "lng" : 139.5795789,
      "lat" : 35.3875701
    },
    {
      "Name" : "永野小学校",
      "Ward" : "港南区",
      "Notes" : "被災した住民の避難生活の場所、情報受伝達、備蓄機能を備えた拠点です。",
      "Address" : "上永谷二丁目21番10号",
      "lng" : 139.5700492,
      "lat" : 35.405804
    },
    {
      "Name" : "日下小学校",
      "Ward" : "港南区",
      "Notes" : "被災した住民の避難生活の場所、情報受伝達、備蓄機能を備えた拠点です。",
      "Address" : "笹下三丁目9番1号",
      "lng" : 139.6017516,
      "lat" : 35.3904757
    },
    {
      "Name" : "桜岡小学校",
      "Ward" : "港南区",
      "Notes" : "被災した住民の避難生活の場所、情報受伝達、備蓄機能を備えた拠点です。",
      "Address" : "大久保一丁目6番43号",
      "lng" : 139.5931498,
      "lat" : 35.4121839
    },
    {
      "Name" : "南台小学校",
      "Ward" : "港南区",
      "Notes" : "被災した住民の避難生活の場所、情報受伝達、備蓄機能を備えた拠点です。",
      "Address" : "港南五丁目6番1号",
      "lng" : 44.6267009,
      "lat" : 32.4964607
    },
    {
      "Name" : "芹が谷小学校",
      "Ward" : "港南区",
      "Notes" : "被災した住民の避難生活の場所、情報受伝達、備蓄機能を備えた拠点です。",
      "Address" : "芹が谷三丁目32番1号",
      "lng" : 139.5735404,
      "lat" : 35.4154971
    },
    {
      "Name" : "吉原小学校",
      "Ward" : "港南区",
      "Notes" : "被災した住民の避難生活の場所、情報受伝達、備蓄機能を備えた拠点です。",
      "Address" : "日野二丁目20番40号",
      "lng" : 139.5835619,
      "lat" : 35.3974384
    },
    {
      "Name" : "下永谷小学校",
      "Ward" : "港南区",
      "Notes" : "被災した住民の避難生活の場所、情報受伝達、備蓄機能を備えた拠点です。",
      "Address" : "東永谷一丁目36番1号",
      "lng" : 139.5817453,
      "lat" : 35.4085814
    },
    {
      "Name" : "上大岡小学校",
      "Ward" : "港南区",
      "Notes" : "被災した住民の避難生活の場所、情報受伝達、備蓄機能を備えた拠点です。",
      "Address" : "上大岡東三丁目11番1号",
      "lng" : 139.603804,
      "lat" : 35.4045463
    },
    {
      "Name" : "芹が谷南小学校",
      "Ward" : "港南区",
      "Notes" : "被災した住民の避難生活の場所、情報受伝達、備蓄機能を備えた拠点です。",
      "Address" : "芹が谷四丁目22番1号",
      "lng" : 139.5713212,
      "lat" : 35.4123031
    },
    {
      "Name" : "日限山小学校",
      "Ward" : "港南区",
      "Notes" : "被災した住民の避難生活の場所、情報受伝達、備蓄機能を備えた拠点です。",
      "Address" : "日限山二丁目16番1号",
      "lng" : 139.5596696,
      "lat" : 35.3937999
    },
    {
      "Name" : "港南台第一小学校",
      "Ward" : "港南区",
      "Notes" : "被災した住民の避難生活の場所、情報受伝達、備蓄機能を備えた拠点です。",
      "Address" : "港南台六丁目7番1号",
      "lng" : 44.6267009,
      "lat" : 32.4964607
    },
    {
      "Name" : "日野南小学校",
      "Ward" : "港南区",
      "Notes" : "被災した住民の避難生活の場所、情報受伝達、備蓄機能を備えた拠点です。",
      "Address" : "日野南六丁目35番1号",
      "lng" : 139.5621277,
      "lat" : 35.3751244
    },
    {
      "Name" : "下野庭小学校",
      "Ward" : "港南区",
      "Notes" : "被災した住民の避難生活の場所、情報受伝達、備蓄機能を備えた拠点です。",
      "Address" : "野庭町602番地",
      "lng" : 139.5714713,
      "lat" : 35.392925
    },
    {
      "Name" : "相武山小学校",
      "Ward" : "港南区",
      "Notes" : "被災した住民の避難生活の場所、情報受伝達、備蓄機能を備えた拠点です。",
      "Address" : "上永谷一丁目7番5号",
      "lng" : 139.5805316,
      "lat" : 35.4024794
    },
    {
      "Name" : "永谷小学校",
      "Ward" : "港南区",
      "Notes" : "被災した住民の避難生活の場所、情報受伝達、備蓄機能を備えた拠点です。",
      "Address" : "下永谷五丁目48番15号",
      "lng" : 139.5595555,
      "lat" : 35.4114726
    },
    {
      "Name" : "港南台第二小学校",
      "Ward" : "港南区",
      "Notes" : "被災した住民の避難生活の場所、情報受伝達、備蓄機能を備えた拠点です。",
      "Address" : "港南台五丁目4番1号",
      "lng" : 44.6267009,
      "lat" : 32.4964607
    },
    {
      "Name" : "港南台第三小学校",
      "Ward" : "港南区",
      "Notes" : "被災した住民の避難生活の場所、情報受伝達、備蓄機能を備えた拠点です。",
      "Address" : "港南台二丁目14番1号",
      "lng" : 44.6267009,
      "lat" : 32.4964607
    },
    {
      "Name" : "丸山台小学校",
      "Ward" : "港南区",
      "Notes" : "被災した住民の避難生活の場所、情報受伝達、備蓄機能を備えた拠点です。",
      "Address" : "丸山台三丁目8番1号",
      "lng" : 139.5684799,
      "lat" : 35.4009935
    },
    {
      "Name" : "野庭すずかけ小学校",
      "Ward" : "港南区",
      "Notes" : "被災した住民の避難生活の場所、情報受伝達、備蓄機能を備えた拠点です。",
      "Address" : "野庭町346番地2",
      "lng" : 139.5745099,
      "lat" : 35.3887283
    },
    {
      "Name" : "小坪小学校",
      "Ward" : "港南区",
      "Notes" : "被災した住民の避難生活の場所、情報受伝達、備蓄機能を備えた拠点です。",
      "Address" : "港南台四丁目11番1号",
      "lng" : 44.6267009,
      "lat" : 32.4964607
    },
    {
      "Name" : "上永谷中学校",
      "Ward" : "港南区",
      "Notes" : "被災した住民の避難生活の場所、情報受伝達、備蓄機能を備えた拠点です。",
      "Address" : "上永谷四丁目12番14号",
      "lng" : 139.5689714,
      "lat" : 35.4099701
    },
    {
      "Name" : "港南中学校",
      "Ward" : "港南区",
      "Notes" : "被災した住民の避難生活の場所、情報受伝達、備蓄機能を備えた拠点です。",
      "Address" : "港南中央通6番地1",
      "lng" : 139.5908917,
      "lat" : 35.4022212
    },
    {
      "Name" : "笹下中学校",
      "Ward" : "港南区",
      "Notes" : "被災した住民の避難生活の場所、情報受伝達、備蓄機能を備えた拠点です。",
      "Address" : "港南五丁目8番1号",
      "lng" : 44.6267009,
      "lat" : 32.4964607
    },
    {
      "Name" : "野庭中学校",
      "Ward" : "港南区",
      "Notes" : "被災した住民の避難生活の場所、情報受伝達、備蓄機能を備えた拠点です。",
      "Address" : "野庭町630番地",
      "lng" : 139.5706991,
      "lat" : 35.3867341
    },
    {
      "Name" : "港南台第一中学校",
      "Ward" : "港南区",
      "Notes" : "被災した住民の避難生活の場所、情報受伝達、備蓄機能を備えた拠点です。",
      "Address" : "港南台六丁目6番1号",
      "lng" : 44.6267009,
      "lat" : 32.4964607
    },
    {
      "Name" : "芹が谷中学校",
      "Ward" : "港南区",
      "Notes" : "被災した住民の避難生活の場所、情報受伝達、備蓄機能を備えた拠点です。",
      "Address" : "芹が谷二丁目7番1号",
      "lng" : 139.5738153,
      "lat" : 35.4175191
    },
    {
      "Name" : "日限山中学校",
      "Ward" : "港南区",
      "Notes" : "被災した住民の避難生活の場所、情報受伝達、備蓄機能を備えた拠点です。",
      "Address" : "日限山四丁目33番1号",
      "lng" : 139.5569504,
      "lat" : 35.3868785
    },
    {
      "Name" : "日野南中学校",
      "Ward" : "港南区",
      "Notes" : "被災した住民の避難生活の場所、情報受伝達、備蓄機能を備えた拠点です。",
      "Address" : "港南台四丁目37番1号",
      "lng" : 44.6267009,
      "lat" : 32.4964607
    },
    {
      "Name" : "丸山台中学校",
      "Ward" : "港南区",
      "Notes" : "被災した住民の避難生活の場所、情報受伝達、備蓄機能を備えた拠点です。",
      "Address" : "丸山台四丁目1番1号",
      "lng" : 139.5651024,
      "lat" : 35.3948914
    },
    {
      "Name" : "東永谷中学校",
      "Ward" : "港南区",
      "Notes" : "被災した住民の避難生活の場所、情報受伝達、備蓄機能を備えた拠点です。",
      "Address" : "東永谷二丁目14番7号",
      "lng" : 139.5789012,
      "lat" : 35.4062928
    },
    {
      "Name" : "富士見台小学校",
      "Ward" : "保土ケ谷区",
      "Notes" : "被災した住民の避難生活の場所、情報受伝達、備蓄機能を備えた拠点です。",
      "Address" : "岩井町307番地",
      "lng" : 139.6020457,
      "lat" : 35.4424107
    },
    {
      "Name" : "保土ケ谷小学校",
      "Ward" : "保土ケ谷区",
      "Notes" : "被災した住民の避難生活の場所、情報受伝達、備蓄機能を備えた拠点です。",
      "Address" : "神戸町129番地4",
      "lng" : 139.5950629,
      "lat" : 35.45480370000001
    },
    {
      "Name" : "帷子小学校",
      "Ward" : "保土ケ谷区",
      "Notes" : "被災した住民の避難生活の場所、情報受伝達、備蓄機能を備えた拠点です。",
      "Address" : "川辺町65番地1",
      "lng" : 139.5975819,
      "lat" : 35.4566285
    },
    {
      "Name" : "岩崎小学校",
      "Ward" : "保土ケ谷区",
      "Notes" : "被災した住民の避難生活の場所、情報受伝達、備蓄機能を備えた拠点です。",
      "Address" : "岩崎町22番地1",
      "lng" : 139.5868557,
      "lat" : 35.4468963
    },
    {
      "Name" : "初音が丘小学校",
      "Ward" : "保土ケ谷区",
      "Notes" : "被災した住民の避難生活の場所、情報受伝達、備蓄機能を備えた拠点です。",
      "Address" : "藤塚町1番地1",
      "lng" : 139.5761008,
      "lat" : 35.4480819
    },
    {
      "Name" : "峯小学校",
      "Ward" : "保土ケ谷区",
      "Notes" : "被災した住民の避難生活の場所、情報受伝達、備蓄機能を備えた拠点です。",
      "Address" : "峰岡町1丁目10番地",
      "lng" : 139.5992399,
      "lat" : 35.4615279
    },
    {
      "Name" : "星川小学校",
      "Ward" : "保土ケ谷区",
      "Notes" : "被災した住民の避難生活の場所、情報受伝達、備蓄機能を備えた拠点です。",
      "Address" : "星川三丁目18番1号",
      "lng" : 139.5893106,
      "lat" : 35.4615723
    },
    {
      "Name" : "仏向小学校",
      "Ward" : "保土ケ谷区",
      "Notes" : "被災した住民の避難生活の場所、情報受伝達、備蓄機能を備えた拠点です。",
      "Address" : "仏向町845番地",
      "lng" : 139.585897,
      "lat" : 35.4605252
    },
    {
      "Name" : "川島小学校",
      "Ward" : "保土ケ谷区",
      "Notes" : "被災した住民の避難生活の場所、情報受伝達、備蓄機能を備えた拠点です。",
      "Address" : "川島町1162番地",
      "lng" : 139.5679761,
      "lat" : 35.4734647
    },
    {
      "Name" : "上菅田小学校",
      "Ward" : "保土ケ谷区",
      "Notes" : "被災した住民の避難生活の場所、情報受伝達、備蓄機能を備えた拠点です。",
      "Address" : "上菅田町134番地",
      "lng" : 139.5661871,
      "lat" : 35.4841995
    },
    {
      "Name" : "今井小学校",
      "Ward" : "保土ケ谷区",
      "Notes" : "被災した住民の避難生活の場所、情報受伝達、備蓄機能を備えた拠点です。",
      "Address" : "今井町981番地1",
      "lng" : 139.558466,
      "lat" : 35.4466288
    },
    {
      "Name" : "桜台小学校",
      "Ward" : "保土ケ谷区",
      "Notes" : "被災した住民の避難生活の場所、情報受伝達、備蓄機能を備えた拠点です。",
      "Address" : "桜ケ丘一丁目13番1号",
      "lng" : 139.5900969,
      "lat" : 35.4505625
    },
    {
      "Name" : "常盤台小学校",
      "Ward" : "保土ケ谷区",
      "Notes" : "被災した住民の避難生活の場所、情報受伝達、備蓄機能を備えた拠点です。",
      "Address" : "釜台町22番地1",
      "lng" : 139.5854635,
      "lat" : 35.469138
    },
    {
      "Name" : "上星川小学校",
      "Ward" : "保土ケ谷区",
      "Notes" : "被災した住民の避難生活の場所、情報受伝達、備蓄機能を備えた拠点です。",
      "Address" : "上星川二丁目51番1号",
      "lng" : 139.577828,
      "lat" : 35.4761425
    },
    {
      "Name" : "笹山小学校",
      "Ward" : "保土ケ谷区",
      "Notes" : "被災した住民の避難生活の場所、情報受伝達、備蓄機能を備えた拠点です。",
      "Address" : "上菅田町1422番地",
      "lng" : 139.5645288,
      "lat" : 35.4926318
    },
    {
      "Name" : "新井小学校",
      "Ward" : "保土ケ谷区",
      "Notes" : "被災した住民の避難生活の場所、情報受伝達、備蓄機能を備えた拠点です。",
      "Address" : "上菅田町1574番地1",
      "lng" : 139.5568042,
      "lat" : 35.4958006
    },
    {
      "Name" : "旧・くぬぎ台小学校",
      "Ward" : "保土ケ谷区",
      "Notes" : "被災した住民の避難生活の場所、情報受伝達、備蓄機能を備えた拠点です。",
      "Address" : "川島町1374番地1",
      "lng" : 139.5596463,
      "lat" : 35.4721146
    },
    {
      "Name" : "坂本小学校",
      "Ward" : "保土ケ谷区",
      "Notes" : "被災した住民の避難生活の場所、情報受伝達、備蓄機能を備えた拠点です。",
      "Address" : "坂本町6番地",
      "lng" : 139.5797641,
      "lat" : 35.4648939
    },
    {
      "Name" : "藤塚小学校",
      "Ward" : "保土ケ谷区",
      "Notes" : "被災した住民の避難生活の場所、情報受伝達、備蓄機能を備えた拠点です。",
      "Address" : "新桜ケ丘一丁目22番1号",
      "lng" : 139.5628906,
      "lat" : 35.4509451
    },
    {
      "Name" : "瀬戸ケ谷小学校",
      "Ward" : "保土ケ谷区",
      "Notes" : "被災した住民の避難生活の場所、情報受伝達、備蓄機能を備えた拠点です。",
      "Address" : "瀬戸ケ谷町243番地",
      "lng" : 139.5869558,
      "lat" : 35.4413886
    },
    {
      "Name" : "権太坂小学校",
      "Ward" : "保土ケ谷区",
      "Notes" : "被災した住民の避難生活の場所、情報受伝達、備蓄機能を備えた拠点です。",
      "Address" : "権太坂二丁目4番1号",
      "lng" : 139.5744927,
      "lat" : 35.4417382
    },
    {
      "Name" : "保土ケ谷中学校",
      "Ward" : "保土ケ谷区",
      "Notes" : "被災した住民の避難生活の場所、情報受伝達、備蓄機能を備えた拠点です。",
      "Address" : "釜台町3番地1",
      "lng" : 139.5843692,
      "lat" : 35.4662689
    },
    {
      "Name" : "宮田中学校",
      "Ward" : "保土ケ谷区",
      "Notes" : "被災した住民の避難生活の場所、情報受伝達、備蓄機能を備えた拠点です。",
      "Address" : "宮田町1丁目100番地",
      "lng" : 139.604606,
      "lat" : 35.4615362
    },
    {
      "Name" : "西谷中学校",
      "Ward" : "保土ケ谷区",
      "Notes" : "被災した住民の避難生活の場所、情報受伝達、備蓄機能を備えた拠点です。",
      "Address" : "川島町1208番地",
      "lng" : 139.5644847,
      "lat" : 35.4744645
    },
    {
      "Name" : "橘中学校",
      "Ward" : "保土ケ谷区",
      "Notes" : "被災した住民の避難生活の場所、情報受伝達、備蓄機能を備えた拠点です。",
      "Address" : "仏向町1167番地2",
      "lng" : 139.5765701,
      "lat" : 35.4557921
    },
    {
      "Name" : "新井中学校",
      "Ward" : "保土ケ谷区",
      "Notes" : "被災した住民の避難生活の場所、情報受伝達、備蓄機能を備えた拠点です。",
      "Address" : "新井町43番地7",
      "lng" : 139.5595932,
      "lat" : 35.4843132
    },
    {
      "Name" : "上白根中学校",
      "Ward" : "旭区",
      "Notes" : "被災した住民の避難生活の場所、情報受伝達、備蓄機能を備えた拠点です。",
      "Address" : "上白根町868番地",
      "lng" : 139.5326785,
      "lat" : 35.4984586
    },
    {
      "Name" : "二俣川小学校",
      "Ward" : "旭区",
      "Notes" : "被災した住民の避難生活の場所、情報受伝達、備蓄機能を備えた拠点です。",
      "Address" : "二俣川１丁目33番",
      "lng" : 139.5295241,
      "lat" : 35.4641182
    },
    {
      "Name" : "市沢小学校",
      "Ward" : "旭区",
      "Notes" : "被災した住民の避難生活の場所、情報受伝達、備蓄機能を備えた拠点です。",
      "Address" : "市沢町781番地",
      "lng" : 139.5587854,
      "lat" : 35.461652
    },
    {
      "Name" : "白根小学校",
      "Ward" : "旭区",
      "Notes" : "被災した住民の避難生活の場所、情報受伝達、備蓄機能を備えた拠点です。",
      "Address" : "中白根一丁目9番1号",
      "lng" : 139.5443527,
      "lat" : 35.4878459
    },
    {
      "Name" : "都岡小学校",
      "Ward" : "旭区",
      "Notes" : "被災した住民の避難生活の場所、情報受伝達、備蓄機能を備えた拠点です。",
      "Address" : "都岡町4番地8",
      "lng" : 139.5211549,
      "lat" : 35.4852212
    },
    {
      "Name" : "希望ケ丘小学校",
      "Ward" : "旭区",
      "Notes" : "被災した住民の避難生活の場所、情報受伝達、備蓄機能を備えた拠点です。",
      "Address" : "中希望が丘124番地",
      "lng" : 139.5125837,
      "lat" : 35.4590661
    },
    {
      "Name" : "鶴ケ峯小学校",
      "Ward" : "旭区",
      "Notes" : "被災した住民の避難生活の場所、情報受伝達、備蓄機能を備えた拠点です。",
      "Address" : "鶴ケ峰一丁目42番",
      "lng" : 139.5519414,
      "lat" : 35.471909
    },
    {
      "Name" : "本宿小学校",
      "Ward" : "旭区",
      "Notes" : "被災した住民の避難生活の場所、情報受伝達、備蓄機能を備えた拠点です。",
      "Address" : "本宿町16番地",
      "lng" : 139.544556,
      "lat" : 35.469201
    },
    {
      "Name" : "万騎が原小学校",
      "Ward" : "旭区",
      "Notes" : "被災した住民の避難生活の場所、情報受伝達、備蓄機能を備えた拠点です。",
      "Address" : "大池町66番地",
      "lng" : 139.5338959,
      "lat" : 35.4527613
    },
    {
      "Name" : "今宿小学校",
      "Ward" : "旭区",
      "Notes" : "被災した住民の避難生活の場所、情報受伝達、備蓄機能を備えた拠点です。",
      "Address" : "今宿東町829番地",
      "lng" : 139.5351342,
      "lat" : 35.484588
    },
    {
      "Name" : "東希望が丘小学校",
      "Ward" : "旭区",
      "Notes" : "被災した住民の避難生活の場所、情報受伝達、備蓄機能を備えた拠点です。",
      "Address" : "東希望が丘155番地",
      "lng" : 139.5115199,
      "lat" : 35.4644626
    },
    {
      "Name" : "上川井小学校",
      "Ward" : "旭区",
      "Notes" : "被災した住民の避難生活の場所、情報受伝達、備蓄機能を備えた拠点です。",
      "Address" : "上川井町2913番地",
      "lng" : 139.5027528,
      "lat" : 35.4986682
    },
    {
      "Name" : "さちが丘小学校",
      "Ward" : "旭区",
      "Notes" : "被災した住民の避難生活の場所、情報受伝達、備蓄機能を備えた拠点です。",
      "Address" : "さちが丘110番地1",
      "lng" : 139.5229441,
      "lat" : 35.4567997
    },
    {
      "Name" : "旧・左近山第一小学校",
      "Ward" : "旭区",
      "Notes" : "被災した住民の避難生活の場所、情報受伝達、備蓄機能を備えた拠点です。",
      "Address" : "左近山1997番地2",
      "lng" : 139.5503444,
      "lat" : 35.4623018
    },
    {
      "Name" : "笹野台小学校",
      "Ward" : "旭区",
      "Notes" : "被災した住民の避難生活の場所、情報受伝達、備蓄機能を備えた拠点です。",
      "Address" : "笹野台四丁目48番1号",
      "lng" : 139.5101642,
      "lat" : 35.473467
    },
    {
      "Name" : "中沢小学校",
      "Ward" : "旭区",
      "Notes" : "被災した住民の避難生活の場所、情報受伝達、備蓄機能を備えた拠点です。",
      "Address" : "中沢三丁目25番1号",
      "lng" : 139.522319,
      "lat" : 35.4747031
    },
    {
      "Name" : "旧・左近山第二小学校",
      "Ward" : "旭区",
      "Notes" : "被災した住民の避難生活の場所、情報受伝達、備蓄機能を備えた拠点です。",
      "Address" : "左近山1011番地",
      "lng" : 139.5561717,
      "lat" : 35.4571663
    },
    {
      "Name" : "四季の森小学校",
      "Ward" : "旭区",
      "Notes" : "被災した住民の避難生活の場所、情報受伝達、備蓄機能を備えた拠点です。",
      "Address" : "上白根町901番地",
      "lng" : 139.5317147,
      "lat" : 35.4965588
    },
    {
      "Name" : "不動丸小学校",
      "Ward" : "旭区",
      "Notes" : "被災した住民の避難生活の場所、情報受伝達、備蓄機能を備えた拠点です。",
      "Address" : "白根三丁目33番1号",
      "lng" : 139.5501746,
      "lat" : 35.4834159
    },
    {
      "Name" : "川井小学校",
      "Ward" : "旭区",
      "Notes" : "被災した住民の避難生活の場所、情報受伝達、備蓄機能を備えた拠点です。",
      "Address" : "川井宿町32番地2",
      "lng" : 139.5208074,
      "lat" : 35.4939396
    },
    {
      "Name" : "上白根小学校",
      "Ward" : "旭区",
      "Notes" : "被災した住民の避難生活の場所、情報受伝達、備蓄機能を備えた拠点です。",
      "Address" : "上白根二丁目45番1号",
      "lng" : 139.5392946,
      "lat" : 35.4955422
    },
    {
      "Name" : "南本宿小学校",
      "Ward" : "旭区",
      "Notes" : "被災した住民の避難生活の場所、情報受伝達、備蓄機能を備えた拠点です。",
      "Address" : "南本宿町79番地",
      "lng" : 139.5385094,
      "lat" : 35.4584189
    },
    {
      "Name" : "左近山小学校",
      "Ward" : "旭区",
      "Notes" : "被災した住民の避難生活の場所、情報受伝達、備蓄機能を備えた拠点です。",
      "Address" : "小高町55番地2",
      "lng" : 139.553733,
      "lat" : 35.4617991
    },
    {
      "Name" : "中尾小学校",
      "Ward" : "旭区",
      "Notes" : "被災した住民の避難生活の場所、情報受伝達、備蓄機能を備えた拠点です。",
      "Address" : "中尾一丁目8番1号",
      "lng" : 139.5224914,
      "lat" : 35.465582
    },
    {
      "Name" : "善部小学校",
      "Ward" : "旭区",
      "Notes" : "被災した住民の避難生活の場所、情報受伝達、備蓄機能を備えた拠点です。",
      "Address" : "善部町4番地1",
      "lng" : 139.516228,
      "lat" : 35.4512587
    },
    {
      "Name" : "若葉台特別支援学校",
      "Ward" : "旭区",
      "Notes" : "被災した住民の避難生活の場所、情報受伝達、備蓄機能を備えた拠点です。",
      "Address" : "若葉台二丁目1番1号",
      "lng" : 139.4728891,
      "lat" : 35.6202302
    },
    {
      "Name" : "今宿南小学校",
      "Ward" : "旭区",
      "Notes" : "被災した住民の避難生活の場所、情報受伝達、備蓄機能を備えた拠点です。",
      "Address" : "今宿南町1879番地2",
      "lng" : 139.5291599,
      "lat" : 35.4789276
    },
    {
      "Name" : "若葉台小学校",
      "Ward" : "旭区",
      "Notes" : "被災した住民の避難生活の場所、情報受伝達、備蓄機能を備えた拠点です。",
      "Address" : "若葉台二丁目14番1号",
      "lng" : 139.5004611,
      "lat" : 35.5083219
    },
    {
      "Name" : "旧・若葉台西中学校",
      "Ward" : "旭区",
      "Notes" : "被災した住民の避難生活の場所、情報受伝達、備蓄機能を備えた拠点です。",
      "Address" : "若葉台四丁目34番1号",
      "lng" : 139.4914422,
      "lat" : 35.5052632
    },
    {
      "Name" : "万騎が原中学校",
      "Ward" : "旭区",
      "Notes" : "被災した住民の避難生活の場所、情報受伝達、備蓄機能を備えた拠点です。",
      "Address" : "万騎が原31番地",
      "lng" : 139.5356485,
      "lat" : 35.4576301
    },
    {
      "Name" : "鶴ケ峯中学校",
      "Ward" : "旭区",
      "Notes" : "被災した住民の避難生活の場所、情報受伝達、備蓄機能を備えた拠点です。",
      "Address" : "鶴ケ峰本町三丁目28番1号",
      "lng" : 139.5423892,
      "lat" : 35.4816245
    },
    {
      "Name" : "旭中学校",
      "Ward" : "旭区",
      "Notes" : "被災した住民の避難生活の場所、情報受伝達、備蓄機能を備えた拠点です。",
      "Address" : "今宿二丁目40番1号",
      "lng" : 139.5177749,
      "lat" : 35.4741864
    },
    {
      "Name" : "南希望が丘中学校",
      "Ward" : "旭区",
      "Notes" : "被災した住民の避難生活の場所、情報受伝達、備蓄機能を備えた拠点です。",
      "Address" : "南希望が丘108番地8",
      "lng" : 139.5097201,
      "lat" : 35.4570802
    },
    {
      "Name" : "今宿中学校",
      "Ward" : "旭区",
      "Notes" : "被災した住民の避難生活の場所、情報受伝達、備蓄機能を備えた拠点です。",
      "Address" : "今宿東町825番地",
      "lng" : 139.5368841,
      "lat" : 35.4847074
    },
    {
      "Name" : "本宿中学校",
      "Ward" : "旭区",
      "Notes" : "被災した住民の避難生活の場所、情報受伝達、備蓄機能を備えた拠点です。",
      "Address" : "川島町1979番地",
      "lng" : 139.547553,
      "lat" : 35.464046
    },
    {
      "Name" : "旭北中学校",
      "Ward" : "旭区",
      "Notes" : "被災した住民の避難生活の場所、情報受伝達、備蓄機能を備えた拠点です。",
      "Address" : "上白根二丁目47番1号",
      "lng" : 139.5373643,
      "lat" : 35.4952367
    },
    {
      "Name" : "滝頭小学校",
      "Ward" : "磯子区",
      "Notes" : "被災した住民の避難生活の場所、情報受伝達、備蓄機能を備えた拠点です。",
      "Address" : "丸山二丁目25番1号",
      "lng" : 139.6210186,
      "lat" : 35.42194140000001
    },
    {
      "Name" : "岡村小学校",
      "Ward" : "磯子区",
      "Notes" : "被災した住民の避難生活の場所、情報受伝達、備蓄機能を備えた拠点です。",
      "Address" : "岡村四丁目7番1号",
      "lng" : 139.611317,
      "lat" : 35.4208859
    },
    {
      "Name" : "磯子小学校",
      "Ward" : "磯子区",
      "Notes" : "被災した住民の避難生活の場所、情報受伝達、備蓄機能を備えた拠点です。",
      "Address" : "久木町11番地1",
      "lng" : 139.6221296,
      "lat" : 35.4144009
    },
    {
      "Name" : "浜小学校",
      "Ward" : "磯子区",
      "Notes" : "被災した住民の避難生活の場所、情報受伝達、備蓄機能を備えた拠点です。",
      "Address" : "磯子台23番地1",
      "lng" : 139.6132807,
      "lat" : 35.4056825
    },
    {
      "Name" : "杉田小学校",
      "Ward" : "磯子区",
      "Notes" : "被災した住民の避難生活の場所、情報受伝達、備蓄機能を備えた拠点です。",
      "Address" : "杉田一丁目8番1号",
      "lng" : 139.6167668,
      "lat" : 35.3855545
    },
    {
      "Name" : "根岸小学校",
      "Ward" : "磯子区",
      "Notes" : "被災した住民の避難生活の場所、情報受伝達、備蓄機能を備えた拠点です。",
      "Address" : "西町2番地46",
      "lng" : 139.6329095,
      "lat" : 35.4177476
    },
    {
      "Name" : "屏風浦小学校",
      "Ward" : "磯子区",
      "Notes" : "被災した住民の避難生活の場所、情報受伝達、備蓄機能を備えた拠点です。",
      "Address" : "森三丁目11番1号",
      "lng" : 139.6140586,
      "lat" : 35.3911621
    },
    {
      "Name" : "梅林小学校",
      "Ward" : "磯子区",
      "Notes" : "被災した住民の避難生活の場所、情報受伝達、備蓄機能を備えた拠点です。",
      "Address" : "杉田五丁目13番1号",
      "lng" : 139.6202083,
      "lat" : 35.37805
    },
    {
      "Name" : "汐見台小学校",
      "Ward" : "磯子区",
      "Notes" : "被災した住民の避難生活の場所、情報受伝達、備蓄機能を備えた拠点です。",
      "Address" : "汐見台3丁目6番地",
      "lng" : 139.6066426,
      "lat" : 35.4011551
    },
    {
      "Name" : "洋光台第一小学校",
      "Ward" : "磯子区",
      "Notes" : "被災した住民の避難生活の場所、情報受伝達、備蓄機能を備えた拠点です。",
      "Address" : "洋光台一丁目4番1号",
      "lng" : 139.5957246,
      "lat" : 35.38422910000001
    },
    {
      "Name" : "洋光台第二小学校",
      "Ward" : "磯子区",
      "Notes" : "被災した住民の避難生活の場所、情報受伝達、備蓄機能を備えた拠点です。",
      "Address" : "洋光台四丁目15番1号",
      "lng" : 139.5998798,
      "lat" : 35.3760968
    },
    {
      "Name" : "さわの里小学校",
      "Ward" : "磯子区",
      "Notes" : "被災した住民の避難生活の場所、情報受伝達、備蓄機能を備えた拠点です。",
      "Address" : "上中里町548番地",
      "lng" : 139.609104,
      "lat" : 35.3692285
    },
    {
      "Name" : "洋光台第三小学校",
      "Ward" : "磯子区",
      "Notes" : "被災した住民の避難生活の場所、情報受伝達、備蓄機能を備えた拠点です。",
      "Address" : "洋光台二丁目4番1号",
      "lng" : 139.5901335,
      "lat" : 35.38238740000001
    },
    {
      "Name" : "洋光台第四小学校",
      "Ward" : "磯子区",
      "Notes" : "被災した住民の避難生活の場所、情報受伝達、備蓄機能を備えた拠点です。",
      "Address" : "洋光台六丁目6番1号",
      "lng" : 139.5970467,
      "lat" : 35.3730054
    },
    {
      "Name" : "森東小学校",
      "Ward" : "磯子区",
      "Notes" : "被災した住民の避難生活の場所、情報受伝達、備蓄機能を備えた拠点です。",
      "Address" : "森一丁目4番",
      "lng" : 136.8156255,
      "lat" : 35.2133206
    },
    {
      "Name" : "山王台小学校",
      "Ward" : "磯子区",
      "Notes" : "被災した住民の避難生活の場所、情報受伝達、備蓄機能を備えた拠点です。",
      "Address" : "磯子五丁目2番1号",
      "lng" : 139.5949691,
      "lat" : 35.377041
    },
    {
      "Name" : "根岸中学校",
      "Ward" : "磯子区",
      "Notes" : "被災した住民の避難生活の場所、情報受伝達、備蓄機能を備えた拠点です。",
      "Address" : "西町17番地13",
      "lng" : 141.5087397,
      "lat" : 43.2218354
    },
    {
      "Name" : "浜中学校",
      "Ward" : "磯子区",
      "Notes" : "被災した住民の避難生活の場所、情報受伝達、備蓄機能を備えた拠点です。",
      "Address" : "杉田三丁目30番11号",
      "lng" : 139.6109925,
      "lat" : 35.37904960000001
    },
    {
      "Name" : "岡村中学校",
      "Ward" : "磯子区",
      "Notes" : "被災した住民の避難生活の場所、情報受伝達、備蓄機能を備えた拠点です。",
      "Address" : "岡村一丁目14番1号",
      "lng" : 139.6177468,
      "lat" : 35.41699759999999
    },
    {
      "Name" : "汐見台中学校",
      "Ward" : "磯子区",
      "Notes" : "被災した住民の避難生活の場所、情報受伝達、備蓄機能を備えた拠点です。",
      "Address" : "汐見台1丁目2番地1",
      "lng" : 139.611267,
      "lat" : 35.40736
    },
    {
      "Name" : "森中学校",
      "Ward" : "磯子区",
      "Notes" : "被災した住民の避難生活の場所、情報受伝達、備蓄機能を備えた拠点です。",
      "Address" : "森五丁目22番1号",
      "lng" : 139.6048957,
      "lat" : 35.3926366
    },
    {
      "Name" : "富岡小学校",
      "Ward" : "金沢区",
      "Notes" : "被災した住民の避難生活の場所、情報受伝達、備蓄機能を備えた拠点です。",
      "Address" : "富岡西七丁目13番1号",
      "lng" : 139.6246248,
      "lat" : 35.3666849
    },
    {
      "Name" : "金沢小学校",
      "Ward" : "金沢区",
      "Notes" : "被災した住民の避難生活の場所、情報受伝達、備蓄機能を備えた拠点です。",
      "Address" : "町屋町26番地26号",
      "lng" : 139.629716,
      "lat" : 35.3356839
    },
    {
      "Name" : "八景小学校",
      "Ward" : "金沢区",
      "Notes" : "被災した住民の避難生活の場所、情報受伝達、備蓄機能を備えた拠点です。",
      "Address" : "泥亀一丁目21番2号",
      "lng" : 139.621989,
      "lat" : 35.3386918
    },
    {
      "Name" : "文庫小学校",
      "Ward" : "金沢区",
      "Notes" : "被災した住民の避難生活の場所、情報受伝達、備蓄機能を備えた拠点です。",
      "Address" : "寺前二丁目21番7号",
      "lng" : 139.6310076,
      "lat" : 35.3400805
    },
    {
      "Name" : "六浦小学校",
      "Ward" : "金沢区",
      "Notes" : "被災した住民の避難生活の場所、情報受伝達、備蓄機能を備えた拠点です。",
      "Address" : "六浦三丁目11番1号",
      "lng" : 139.6130481,
      "lat" : 35.3302311
    },
    {
      "Name" : "釜利谷小学校",
      "Ward" : "金沢区",
      "Notes" : "被災した住民の避難生活の場所、情報受伝達、備蓄機能を備えた拠点です。",
      "Address" : "釜利谷東六丁目37番1号",
      "lng" : 139.6082124,
      "lat" : 35.3438764
    },
    {
      "Name" : "大道小学校",
      "Ward" : "金沢区",
      "Notes" : "被災した住民の避難生活の場所、情報受伝達、備蓄機能を備えた拠点です。",
      "Address" : "大道二丁目3番1号",
      "lng" : 139.6267234,
      "lat" : 35.9082396
    },
    {
      "Name" : "瀬ケ崎小学校",
      "Ward" : "金沢区",
      "Notes" : "被災した住民の避難生活の場所、情報受伝達、備蓄機能を備えた拠点です。",
      "Address" : "六浦東三丁目2番1号",
      "lng" : 139.6201641,
      "lat" : 35.3194491
    },
    {
      "Name" : "西柴小学校",
      "Ward" : "金沢区",
      "Notes" : "被災した住民の避難生活の場所、情報受伝達、備蓄機能を備えた拠点です。",
      "Address" : "西柴四丁目23番1号",
      "lng" : 139.6332407,
      "lat" : 35.34790160000001
    },
    {
      "Name" : "西富岡小学校",
      "Ward" : "金沢区",
      "Notes" : "被災した住民の避難生活の場所、情報受伝達、備蓄機能を備えた拠点です。",
      "Address" : "富岡西五丁目49番1号",
      "lng" : 139.6140647,
      "lat" : 35.3620852
    },
    {
      "Name" : "朝比奈小学校",
      "Ward" : "金沢区",
      "Notes" : "被災した住民の避難生活の場所、情報受伝達、備蓄機能を備えた拠点です。",
      "Address" : "東朝比奈二丁目53番1号",
      "lng" : 139.5950469,
      "lat" : 35.3230837
    },
    {
      "Name" : "釜利谷西小学校",
      "Ward" : "金沢区",
      "Notes" : "被災した住民の避難生活の場所、情報受伝達、備蓄機能を備えた拠点です。",
      "Address" : "釜利谷西四丁目19番1号",
      "lng" : 139.5933221,
      "lat" : 35.3438867
    },
    {
      "Name" : "高舟台小学校",
      "Ward" : "金沢区",
      "Notes" : "被災した住民の避難生活の場所、情報受伝達、備蓄機能を備えた拠点です。",
      "Address" : "高舟台一丁目35番1号",
      "lng" : 139.6077875,
      "lat" : 35.3337305
    },
    {
      "Name" : "並木第一小学校",
      "Ward" : "金沢区",
      "Notes" : "被災した住民の避難生活の場所、情報受伝達、備蓄機能を備えた拠点です。",
      "Address" : "並木一丁目7番1号",
      "lng" : 139.6389041,
      "lat" : 35.3727956
    },
    {
      "Name" : "釜利谷東小学校",
      "Ward" : "金沢区",
      "Notes" : "被災した住民の避難生活の場所、情報受伝達、備蓄機能を備えた拠点です。",
      "Address" : "釜利谷東二丁目12番1号",
      "lng" : 139.6169755,
      "lat" : 35.3445073
    },
    {
      "Name" : "並木中央小学校",
      "Ward" : "金沢区",
      "Notes" : "被災した住民の避難生活の場所、情報受伝達、備蓄機能を備えた拠点です。",
      "Address" : "並木一丁目25番1号",
      "lng" : 139.6411872,
      "lat" : 35.3666687
    },
    {
      "Name" : "並木中学校",
      "Ward" : "金沢区",
      "Notes" : "被災した住民の避難生活の場所、情報受伝達、備蓄機能を備えた拠点です。",
      "Address" : "並木三丁目4番1号",
      "lng" : 139.6409123,
      "lat" : 35.3592419
    },
    {
      "Name" : "並木第四小学校",
      "Ward" : "金沢区",
      "Notes" : "被災した住民の避難生活の場所、情報受伝達、備蓄機能を備えた拠点です。",
      "Address" : "並木三丁目10番1号",
      "lng" : 139.6413428,
      "lat" : 35.3559201
    },
    {
      "Name" : "能見台小学校",
      "Ward" : "金沢区",
      "Notes" : "被災した住民の避難生活の場所、情報受伝達、備蓄機能を備えた拠点です。",
      "Address" : "能見台三丁目32番1号",
      "lng" : 139.622475,
      "lat" : 35.3578361
    },
    {
      "Name" : "釜利谷南小学校",
      "Ward" : "金沢区",
      "Notes" : "被災した住民の避難生活の場所、情報受伝達、備蓄機能を備えた拠点です。",
      "Address" : "釜利谷南四丁目12番1号",
      "lng" : 139.6058432,
      "lat" : 35.3388631
    },
    {
      "Name" : "小田小学校",
      "Ward" : "金沢区",
      "Notes" : "被災した住民の避難生活の場所、情報受伝達、備蓄機能を備えた拠点です。",
      "Address" : "富岡西一丁目69番1号",
      "lng" : 139.6203641,
      "lat" : 35.3718035
    },
    {
      "Name" : "六浦南小学校",
      "Ward" : "金沢区",
      "Notes" : "被災した住民の避難生活の場所、情報受伝達、備蓄機能を備えた拠点です。",
      "Address" : "六浦南三丁目22番1号",
      "lng" : 139.6109205,
      "lat" : 35.3158519
    },
    {
      "Name" : "能見台南小学校",
      "Ward" : "金沢区",
      "Notes" : "被災した住民の避難生活の場所、情報受伝達、備蓄機能を備えた拠点です。",
      "Address" : "能見台六丁目3番1号",
      "lng" : 139.6148063,
      "lat" : 35.3533448
    },
    {
      "Name" : "西柴中学校",
      "Ward" : "金沢区",
      "Notes" : "被災した住民の避難生活の場所、情報受伝達、備蓄機能を備えた拠点です。",
      "Address" : "西柴一丁目23番1号",
      "lng" : 139.6294161,
      "lat" : 35.3527398
    },
    {
      "Name" : "六浦中学校",
      "Ward" : "金沢区",
      "Notes" : "被災した住民の避難生活の場所、情報受伝達、備蓄機能を備えた拠点です。",
      "Address" : "六浦一丁目24番4号",
      "lng" : 139.617756,
      "lat" : 35.3246652
    },
    {
      "Name" : "大道中学校",
      "Ward" : "金沢区",
      "Notes" : "被災した住民の避難生活の場所、情報受伝達、備蓄機能を備えた拠点です。",
      "Address" : "大道一丁目85番1号",
      "lng" : 139.6013908,
      "lat" : 35.33057489999999
    },
    {
      "Name" : "城郷小学校",
      "Ward" : "港北区",
      "Notes" : "被災した住民の避難生活の場所、情報受伝達、備蓄機能を備えた拠点です。",
      "Address" : "鳥山町814番地",
      "lng" : 139.6023809,
      "lat" : 35.5050505
    },
    {
      "Name" : "大綱小学校",
      "Ward" : "港北区",
      "Notes" : "被災した住民の避難生活の場所、情報受伝達、備蓄機能を備えた拠点です。",
      "Address" : "大倉山四丁目2番1号",
      "lng" : 139.6256806,
      "lat" : 35.5189965
    },
    {
      "Name" : "大曽根小学校",
      "Ward" : "港北区",
      "Notes" : "被災した住民の避難生活の場所、情報受伝達、備蓄機能を備えた拠点です。",
      "Address" : "大曽根二丁目31番1号",
      "lng" : 139.6301187,
      "lat" : 35.5321175
    },
    {
      "Name" : "綱島小学校",
      "Ward" : "港北区",
      "Notes" : "被災した住民の避難生活の場所、情報受伝達、備蓄機能を備えた拠点です。",
      "Address" : "綱島西三丁目11番1号",
      "lng" : 139.6279493,
      "lat" : 35.5373614
    },
    {
      "Name" : "日吉台小学校",
      "Ward" : "港北区",
      "Notes" : "被災した住民の避難生活の場所、情報受伝達、備蓄機能を備えた拠点です。",
      "Address" : "日吉本町一丁目34番21号",
      "lng" : 139.6435502,
      "lat" : 35.55278080000001
    },
    {
      "Name" : "港北小学校",
      "Ward" : "港北区",
      "Notes" : "被災した住民の避難生活の場所、情報受伝達、備蓄機能を備えた拠点です。",
      "Address" : "菊名二丁目15番1号",
      "lng" : 139.6359663,
      "lat" : 35.5000514
    },
    {
      "Name" : "菊名小学校",
      "Ward" : "港北区",
      "Notes" : "被災した住民の避難生活の場所、情報受伝達、備蓄機能を備えた拠点です。",
      "Address" : "菊名五丁目18番1号",
      "lng" : 139.6351772,
      "lat" : 35.5129334
    },
    {
      "Name" : "新田小学校",
      "Ward" : "港北区",
      "Notes" : "被災した住民の避難生活の場所、情報受伝達、備蓄機能を備えた拠点です。",
      "Address" : "新吉田町3226番地1",
      "lng" : 139.6099264,
      "lat" : 35.5333199
    },
    {
      "Name" : "高田中学校",
      "Ward" : "港北区",
      "Notes" : "被災した住民の避難生活の場所、情報受伝達、備蓄機能を備えた拠点です。",
      "Address" : "高田町2439番地",
      "lng" : 139.6172276,
      "lat" : 35.556719
    },
    {
      "Name" : "矢上小学校",
      "Ward" : "港北区",
      "Notes" : "被災した住民の避難生活の場所、情報受伝達、備蓄機能を備えた拠点です。",
      "Address" : "日吉三丁目23番1号",
      "lng" : 139.0774265,
      "lat" : 36.3989418
    },
    {
      "Name" : "駒林小学校",
      "Ward" : "港北区",
      "Notes" : "被災した住民の避難生活の場所、情報受伝達、備蓄機能を備えた拠点です。",
      "Address" : "日吉本町二丁目51番1号",
      "lng" : 139.6351593,
      "lat" : 35.5525559
    },
    {
      "Name" : "篠原小学校",
      "Ward" : "港北区",
      "Notes" : "被災した住民の避難生活の場所、情報受伝達、備蓄機能を備えた拠点です。",
      "Address" : "篠原東三丁目27番1号",
      "lng" : 139.6269032,
      "lat" : 35.5030758
    },
    {
      "Name" : "下田小学校",
      "Ward" : "港北区",
      "Notes" : "被災した住民の避難生活の場所、情報受伝達、備蓄機能を備えた拠点です。",
      "Address" : "下田町四丁目10番1号",
      "lng" : 139.6301096,
      "lat" : 35.5573134
    },
    {
      "Name" : "日吉南小学校",
      "Ward" : "港北区",
      "Notes" : "被災した住民の避難生活の場所、情報受伝達、備蓄機能を備えた拠点です。",
      "Address" : "日吉本町四丁目2番6号",
      "lng" : 139.6395952,
      "lat" : 35.5447878
    },
    {
      "Name" : "篠原西小学校",
      "Ward" : "港北区",
      "Notes" : "被災した住民の避難生活の場所、情報受伝達、備蓄機能を備えた拠点です。",
      "Address" : "篠原町1241番地1",
      "lng" : 139.6150045,
      "lat" : 35.5019841
    },
    {
      "Name" : "新吉田小学校",
      "Ward" : "港北区",
      "Notes" : "被災した住民の避難生活の場所、情報受伝達、備蓄機能を備えた拠点です。",
      "Address" : "新吉田東六丁目44番1号",
      "lng" : 139.6174892,
      "lat" : 35.5384361
    },
    {
      "Name" : "綱島東小学校",
      "Ward" : "港北区",
      "Notes" : "被災した住民の避難生活の場所、情報受伝達、備蓄機能を備えた拠点です。",
      "Address" : "綱島東三丁目1番30号",
      "lng" : 139.6402093,
      "lat" : 35.5375364
    },
    {
      "Name" : "師岡小学校",
      "Ward" : "港北区",
      "Notes" : "被災した住民の避難生活の場所、情報受伝達、備蓄機能を備えた拠点です。",
      "Address" : "師岡町986番地",
      "lng" : 139.6389154,
      "lat" : 35.523849
    },
    {
      "Name" : "高田東小学校",
      "Ward" : "港北区",
      "Notes" : "被災した住民の避難生活の場所、情報受伝達、備蓄機能を備えた拠点です。",
      "Address" : "高田東二丁目33番1号",
      "lng" : 139.6248102,
      "lat" : 35.5523254
    },
    {
      "Name" : "太尾小学校",
      "Ward" : "港北区",
      "Notes" : "被災した住民の避難生活の場所、情報受伝達、備蓄機能を備えた拠点です。",
      "Address" : "大倉山七丁目34番1号",
      "lng" : 139.61912,
      "lat" : 35.524307
    },
    {
      "Name" : "新羽小学校",
      "Ward" : "港北区",
      "Notes" : "被災した住民の避難生活の場所、情報受伝達、備蓄機能を備えた拠点です。",
      "Address" : "新羽町1452番地2",
      "lng" : 139.6078936,
      "lat" : 35.5227264
    },
    {
      "Name" : "北綱島小学校",
      "Ward" : "港北区",
      "Notes" : "被災した住民の避難生活の場所、情報受伝達、備蓄機能を備えた拠点です。",
      "Address" : "綱島西五丁目14番40号",
      "lng" : 139.6307988,
      "lat" : 35.5439741
    },
    {
      "Name" : "新吉田第二小学校",
      "Ward" : "港北区",
      "Notes" : "被災した住民の避難生活の場所、情報受伝達、備蓄機能を備えた拠点です。",
      "Address" : "新吉田町491番地1",
      "lng" : 139.6129311,
      "lat" : 35.549684
    },
    {
      "Name" : "大豆戸小学校",
      "Ward" : "港北区",
      "Notes" : "被災した住民の避難生活の場所、情報受伝達、備蓄機能を備えた拠点です。",
      "Address" : "大豆戸町759番地",
      "lng" : 139.6219116,
      "lat" : 35.5156718
    },
    {
      "Name" : "小机小学校",
      "Ward" : "港北区",
      "Notes" : "被災した住民の避難生活の場所、情報受伝達、備蓄機能を備えた拠点です。",
      "Address" : "小机町1382番地10",
      "lng" : 139.597987,
      "lat" : 35.5053893
    },
    {
      "Name" : "城郷中学校",
      "Ward" : "港北区",
      "Notes" : "被災した住民の避難生活の場所、情報受伝達、備蓄機能を備えた拠点です。",
      "Address" : "小机町325番地",
      "lng" : 139.5875243,
      "lat" : 35.5052948
    },
    {
      "Name" : "新田中学校",
      "Ward" : "港北区",
      "Notes" : "被災した住民の避難生活の場所、情報受伝達、備蓄機能を備えた拠点です。",
      "Address" : "新吉田東五丁目25番1号",
      "lng" : 139.6224219,
      "lat" : 35.5411885
    },
    {
      "Name" : "樽町中学校",
      "Ward" : "港北区",
      "Notes" : "被災した住民の避難生活の場所、情報受伝達、備蓄機能を備えた拠点です。",
      "Address" : "樽町四丁目15番1号",
      "lng" : 139.6423038,
      "lat" : 35.5284319
    },
    {
      "Name" : "山下小学校",
      "Ward" : "緑区",
      "Notes" : "被災した住民の避難生活の場所、情報受伝達、備蓄機能を備えた拠点です。",
      "Address" : "北八朔町1865番地3",
      "lng" : 139.5382889,
      "lat" : 35.5252748
    },
    {
      "Name" : "鴨居小学校",
      "Ward" : "緑区",
      "Notes" : "被災した住民の避難生活の場所、情報受伝達、備蓄機能を備えた拠点です。",
      "Address" : "鴨居四丁目7番15号",
      "lng" : 139.5661728,
      "lat" : 35.508941
    },
    {
      "Name" : "新治小学校",
      "Ward" : "緑区",
      "Notes" : "被災した住民の避難生活の場所、情報受伝達、備蓄機能を備えた拠点です。",
      "Address" : "新治町768番地",
      "lng" : 139.519535,
      "lat" : 35.5174616
    },
    {
      "Name" : "森の台小学校",
      "Ward" : "緑区",
      "Notes" : "被災した住民の避難生活の場所、情報受伝達、備蓄機能を備えた拠点です。",
      "Address" : "森の台13番地1",
      "lng" : 139.5356975,
      "lat" : 35.5089767
    },
    {
      "Name" : "長津田小学校",
      "Ward" : "緑区",
      "Notes" : "被災した住民の避難生活の場所、情報受伝達、備蓄機能を備えた拠点です。",
      "Address" : "長津田町2330番地",
      "lng" : 139.490736,
      "lat" : 35.53031989999999
    },
    {
      "Name" : "十日市場小学校",
      "Ward" : "緑区",
      "Notes" : "被災した住民の避難生活の場所、情報受伝達、備蓄機能を備えた拠点です。",
      "Address" : "十日市場町1392番地1",
      "lng" : 139.5143102,
      "lat" : 35.5205272
    },
    {
      "Name" : "三保小学校",
      "Ward" : "緑区",
      "Notes" : "被災した住民の避難生活の場所、情報受伝達、備蓄機能を備えた拠点です。",
      "Address" : "三保町1867番地",
      "lng" : 139.5264956,
      "lat" : 35.5159981
    },
    {
      "Name" : "竹山小学校",
      "Ward" : "緑区",
      "Notes" : "被災した住民の避難生活の場所、情報受伝達、備蓄機能を備えた拠点です。",
      "Address" : "竹山三丁目1番16号",
      "lng" : 139.5607428,
      "lat" : 35.4962562
    },
    {
      "Name" : "長津田第二小学校",
      "Ward" : "緑区",
      "Notes" : "被災した住民の避難生活の場所、情報受伝達、備蓄機能を備えた拠点です。",
      "Address" : "長津田町2469番地3",
      "lng" : 139.4882332,
      "lat" : 35.5347271
    },
    {
      "Name" : "東本郷小学校",
      "Ward" : "緑区",
      "Notes" : "被災した住民の避難生活の場所、情報受伝達、備蓄機能を備えた拠点です。",
      "Address" : "東本郷五丁目40番1号",
      "lng" : 139.5821552,
      "lat" : 35.5049919
    },
    {
      "Name" : "上山小学校",
      "Ward" : "緑区",
      "Notes" : "被災した住民の避難生活の場所、情報受伝達、備蓄機能を備えた拠点です。",
      "Address" : "上山二丁目5番1号",
      "lng" : 139.5470826,
      "lat" : 35.5065187
    },
    {
      "Name" : "緑小学校",
      "Ward" : "緑区",
      "Notes" : "被災した住民の避難生活の場所、情報受伝達、備蓄機能を備えた拠点です。",
      "Address" : "鴨居五丁目19番1号",
      "lng" : 139.5607482,
      "lat" : 35.5050524
    },
    {
      "Name" : "霧が丘小学校",
      "Ward" : "緑区",
      "Notes" : "被災した住民の避難生活の場所、情報受伝達、備蓄機能を備えた拠点です。",
      "Address" : "霧が丘四丁目3番",
      "lng" : 139.5071662,
      "lat" : 35.5120971
    },
    {
      "Name" : "霧が丘複合施設「霧の里」",
      "Ward" : "緑区",
      "Notes" : "被災した住民の避難生活の場所、情報受伝達、備蓄機能を備えた拠点です。",
      "Address" : "霧が丘三丁目23番",
      "lng" : 139.5045552,
      "lat" : 35.51626
    },
    {
      "Name" : "いぶき野小学校",
      "Ward" : "緑区",
      "Notes" : "被災した住民の避難生活の場所、情報受伝達、備蓄機能を備えた拠点です。",
      "Address" : "いぶき野14番地1",
      "lng" : 139.501794,
      "lat" : 35.5258832
    },
    {
      "Name" : "中山小学校",
      "Ward" : "緑区",
      "Notes" : "被災した住民の避難生活の場所、情報受伝達、備蓄機能を備えた拠点です。",
      "Address" : "中山町925番地",
      "lng" : 139.5483714,
      "lat" : 35.5107071
    },
    {
      "Name" : "山下みどり台小学校",
      "Ward" : "緑区",
      "Notes" : "被災した住民の避難生活の場所、情報受伝達、備蓄機能を備えた拠点です。",
      "Address" : "北八朔町2031番地3",
      "lng" : 139.5331589,
      "lat" : 35.5318712
    },
    {
      "Name" : "田奈中学校",
      "Ward" : "緑区",
      "Notes" : "被災した住民の避難生活の場所、情報受伝達、備蓄機能を備えた拠点です。",
      "Address" : "長津田二丁目24番1号",
      "lng" : 139.4982384,
      "lat" : 35.5346258
    },
    {
      "Name" : "中山中学校",
      "Ward" : "緑区",
      "Notes" : "被災した住民の避難生活の場所、情報受伝達、備蓄機能を備えた拠点です。",
      "Address" : "寺山町653番地21",
      "lng" : 139.5399721,
      "lat" : 35.5038885
    },
    {
      "Name" : "十日市場中学校",
      "Ward" : "緑区",
      "Notes" : "被災した住民の避難生活の場所、情報受伝達、備蓄機能を備えた拠点です。",
      "Address" : "十日市場町1501番地42",
      "lng" : 139.5125575,
      "lat" : 35.5225212
    },
    {
      "Name" : "鴨居中学校",
      "Ward" : "緑区",
      "Notes" : "被災した住民の避難生活の場所、情報受伝達、備蓄機能を備えた拠点です。",
      "Address" : "鴨居五丁目12番35号",
      "lng" : 139.5616287,
      "lat" : 35.5075771
    },
    {
      "Name" : "東鴨居中学校",
      "Ward" : "緑区",
      "Notes" : "被災した住民の避難生活の場所、情報受伝達、備蓄機能を備えた拠点です。",
      "Address" : "鴨居三丁目39番1号",
      "lng" : 139.7352893,
      "lat" : 35.2537493
    },
    {
      "Name" : "鉄小学校",
      "Ward" : "青葉区",
      "Notes" : "被災した住民の避難生活の場所、情報受伝達、備蓄機能を備えた拠点です。",
      "Address" : "鉄町427番地",
      "lng" : 139.520025,
      "lat" : 35.5625693
    },
    {
      "Name" : "谷本小学校",
      "Ward" : "青葉区",
      "Notes" : "被災した住民の避難生活の場所、情報受伝達、備蓄機能を備えた拠点です。",
      "Address" : "藤が丘一丁目55番10号",
      "lng" : 139.5352722,
      "lat" : 35.5432558
    },
    {
      "Name" : "田奈小学校",
      "Ward" : "青葉区",
      "Notes" : "被災した住民の避難生活の場所、情報受伝達、備蓄機能を備えた拠点です。",
      "Address" : "田奈町51番地13",
      "lng" : 139.5003326,
      "lat" : 35.5392643
    },
    {
      "Name" : "山内小学校",
      "Ward" : "青葉区",
      "Notes" : "被災した住民の避難生活の場所、情報受伝達、備蓄機能を備えた拠点です。",
      "Address" : "新石川一丁目20番1号",
      "lng" : 139.5568419,
      "lat" : 35.5689918
    },
    {
      "Name" : "奈良小学校",
      "Ward" : "青葉区",
      "Notes" : "被災した住民の避難生活の場所、情報受伝達、備蓄機能を備えた拠点です。",
      "Address" : "奈良町1541番地2",
      "lng" : 139.480818,
      "lat" : 35.5627509
    },
    {
      "Name" : "つつじが丘小学校",
      "Ward" : "青葉区",
      "Notes" : "被災した住民の避難生活の場所、情報受伝達、備蓄機能を備えた拠点です。",
      "Address" : "つつじが丘34番地",
      "lng" : 139.5200988,
      "lat" : 35.5359649
    },
    {
      "Name" : "美しが丘小学校",
      "Ward" : "青葉区",
      "Notes" : "被災した住民の避難生活の場所、情報受伝達、備蓄機能を備えた拠点です。",
      "Address" : "美しが丘二丁目29番",
      "lng" : 139.5567021,
      "lat" : 35.5843645
    },
    {
      "Name" : "青葉台小学校",
      "Ward" : "青葉区",
      "Notes" : "被災した住民の避難生活の場所、情報受伝達、備蓄機能を備えた拠点です。",
      "Address" : "桜台47番地",
      "lng" : 139.8733675,
      "lat" : 35.9340225
    },
    {
      "Name" : "榎が丘小学校",
      "Ward" : "青葉区",
      "Notes" : "被災した住民の避難生活の場所、情報受伝達、備蓄機能を備えた拠点です。",
      "Address" : "榎が丘29番地",
      "lng" : 139.5098016,
      "lat" : 35.541907
    },
    {
      "Name" : "すすき野小学校",
      "Ward" : "青葉区",
      "Notes" : "被災した住民の避難生活の場所、情報受伝達、備蓄機能を備えた拠点です。",
      "Address" : "すすき野三丁目4番1号",
      "lng" : 139.5304292,
      "lat" : 35.5792814
    },
    {
      "Name" : "もえぎ野小学校",
      "Ward" : "青葉区",
      "Notes" : "被災した住民の避難生活の場所、情報受伝達、備蓄機能を備えた拠点です。",
      "Address" : "もえぎ野16番地",
      "lng" : 139.5231229,
      "lat" : 35.5486133
    },
    {
      "Name" : "元石川小学校",
      "Ward" : "青葉区",
      "Notes" : "被災した住民の避難生活の場所、情報受伝達、備蓄機能を備えた拠点です。",
      "Address" : "美しが丘四丁目31番1号",
      "lng" : 139.5482167,
      "lat" : 35.5832756
    },
    {
      "Name" : "藤が丘小学校",
      "Ward" : "青葉区",
      "Notes" : "被災した住民の避難生活の場所、情報受伝達、備蓄機能を備えた拠点です。",
      "Address" : "藤が丘二丁目30番3号",
      "lng" : 139.5262482,
      "lat" : 35.5393036
    },
    {
      "Name" : "みたけ台小学校",
      "Ward" : "青葉区",
      "Notes" : "被災した住民の避難生活の場所、情報受伝達、備蓄機能を備えた拠点です。",
      "Address" : "みたけ台18番地",
      "lng" : 139.5169477,
      "lat" : 35.5564754
    },
    {
      "Name" : "美しが丘東小学校",
      "Ward" : "青葉区",
      "Notes" : "被災した住民の避難生活の場所、情報受伝達、備蓄機能を備えた拠点です。",
      "Address" : "美しが丘二丁目25番",
      "lng" : 139.5600325,
      "lat" : 35.5824564
    },
    {
      "Name" : "市ケ尾小学校",
      "Ward" : "青葉区",
      "Notes" : "被災した住民の避難生活の場所、情報受伝達、備蓄機能を備えた拠点です。",
      "Address" : "市ケ尾町1632番地1",
      "lng" : 139.5399685,
      "lat" : 35.55607639999999
    },
    {
      "Name" : "あざみ野第一小学校",
      "Ward" : "青葉区",
      "Notes" : "被災した住民の避難生活の場所、情報受伝達、備蓄機能を備えた拠点です。",
      "Address" : "あざみ野四丁目6番1号",
      "lng" : 139.5423065,
      "lat" : 35.5718521
    },
    {
      "Name" : "嶮山小学校",
      "Ward" : "青葉区",
      "Notes" : "被災した住民の避難生活の場所、情報受伝達、備蓄機能を備えた拠点です。",
      "Address" : "すすき野一丁目6番4号",
      "lng" : 139.5292905,
      "lat" : 35.5758596
    },
    {
      "Name" : "東市ケ尾小学校",
      "Ward" : "青葉区",
      "Notes" : "被災した住民の避難生活の場所、情報受伝達、備蓄機能を備えた拠点です。",
      "Address" : "市ケ尾町519番地",
      "lng" : 139.5464491,
      "lat" : 35.5431559
    },
    {
      "Name" : "鴨志田第一小学校",
      "Ward" : "青葉区",
      "Notes" : "被災した住民の避難生活の場所、情報受伝達、備蓄機能を備えた拠点です。",
      "Address" : "鴨志田町805番地6",
      "lng" : 139.5092618,
      "lat" : 35.5571048
    },
    {
      "Name" : "あざみ野第二小学校",
      "Ward" : "青葉区",
      "Notes" : "被災した住民の避難生活の場所、情報受伝達、備蓄機能を備えた拠点です。",
      "Address" : "あざみ野三丁目29番3号",
      "lng" : 139.5418625,
      "lat" : 35.5639559
    },
    {
      "Name" : "鴨志田緑小学校",
      "Ward" : "青葉区",
      "Notes" : "被災した住民の避難生活の場所、情報受伝達、備蓄機能を備えた拠点です。",
      "Address" : "鴨志田町532番地",
      "lng" : 139.5052643,
      "lat" : 35.5638312
    },
    {
      "Name" : "荏子田小学校",
      "Ward" : "青葉区",
      "Notes" : "被災した住民の避難生活の場所、情報受伝達、備蓄機能を備えた拠点です。",
      "Address" : "荏子田三丁目8番9号",
      "lng" : 139.5349458,
      "lat" : 35.5750265
    },
    {
      "Name" : "恩田小学校",
      "Ward" : "青葉区",
      "Notes" : "被災した住民の避難生活の場所、情報受伝達、備蓄機能を備えた拠点です。",
      "Address" : "桂台二丁目36番",
      "lng" : 139.4992679,
      "lat" : 35.5525097
    },
    {
      "Name" : "新石川小学校",
      "Ward" : "青葉区",
      "Notes" : "被災した住民の避難生活の場所、情報受伝達、備蓄機能を備えた拠点です。",
      "Address" : "新石川三丁目12番1号",
      "lng" : 139.5620937,
      "lat" : 35.5767406
    },
    {
      "Name" : "さつきが丘小学校",
      "Ward" : "青葉区",
      "Notes" : "被災した住民の避難生活の場所、情報受伝達、備蓄機能を備えた拠点です。",
      "Address" : "さつきが丘8番地",
      "lng" : 139.5180239,
      "lat" : 35.5324901
    },
    {
      "Name" : "荏田西小学校",
      "Ward" : "青葉区",
      "Notes" : "被災した住民の避難生活の場所、情報受伝達、備蓄機能を備えた拠点です。",
      "Address" : "荏田西四丁目5番1号",
      "lng" : 139.5492154,
      "lat" : 35.5474193
    },
    {
      "Name" : "桂小学校",
      "Ward" : "青葉区",
      "Notes" : "被災した住民の避難生活の場所、情報受伝達、備蓄機能を備えた拠点です。",
      "Address" : "桂台一丁目4番",
      "lng" : 139.5053819,
      "lat" : 35.5484194
    },
    {
      "Name" : "奈良の丘小学校",
      "Ward" : "青葉区",
      "Notes" : "被災した住民の避難生活の場所、情報受伝達、備蓄機能を備えた拠点です。",
      "Address" : "奈良二丁目29番1号",
      "lng" : 139.4864989,
      "lat" : 35.5516193
    },
    {
      "Name" : "山内中学校",
      "Ward" : "青葉区",
      "Notes" : "被災した住民の避難生活の場所、情報受伝達、備蓄機能を備えた拠点です。",
      "Address" : "美しが丘五丁目4番",
      "lng" : 139.5518557,
      "lat" : 35.5767183
    },
    {
      "Name" : "谷本中学校",
      "Ward" : "青葉区",
      "Notes" : "被災した住民の避難生活の場所、情報受伝達、備蓄機能を備えた拠点です。",
      "Address" : "梅が丘5番地",
      "lng" : 139.5226486,
      "lat" : 35.537165
    },
    {
      "Name" : "青葉台中学校",
      "Ward" : "青葉区",
      "Notes" : "被災した住民の避難生活の場所、情報受伝達、備蓄機能を備えた拠点です。",
      "Address" : "青葉台二丁目25番2号",
      "lng" : 139.5151233,
      "lat" : 35.5475486
    },
    {
      "Name" : "みたけ台中学校",
      "Ward" : "青葉区",
      "Notes" : "被災した住民の避難生活の場所、情報受伝達、備蓄機能を備えた拠点です。",
      "Address" : "みたけ台30番地",
      "lng" : 139.5216142,
      "lat" : 35.5570065
    },
    {
      "Name" : "美しが丘中学校",
      "Ward" : "青葉区",
      "Notes" : "被災した住民の避難生活の場所、情報受伝達、備蓄機能を備えた拠点です。",
      "Address" : "美しが丘三丁目41番1号",
      "lng" : 139.551419,
      "lat" : 35.5879167
    },
    {
      "Name" : "緑が丘中学校",
      "Ward" : "青葉区",
      "Notes" : "被災した住民の避難生活の場所、情報受伝達、備蓄機能を備えた拠点です。",
      "Address" : "千草台50番地1",
      "lng" : 139.5366752,
      "lat" : 35.5358763
    },
    {
      "Name" : "奈良中学校",
      "Ward" : "青葉区",
      "Notes" : "被災した住民の避難生活の場所、情報受伝達、備蓄機能を備えた拠点です。",
      "Address" : "すみよし台36番地3",
      "lng" : 139.4947372,
      "lat" : 35.5569835
    },
    {
      "Name" : "あざみ野中学校",
      "Ward" : "青葉区",
      "Notes" : "被災した住民の避難生活の場所、情報受伝達、備蓄機能を備えた拠点です。",
      "Address" : "あざみ野一丁目29番1号",
      "lng" : 139.5473062,
      "lat" : 35.5717689
    },
    {
      "Name" : "黒須田小学校",
      "Ward" : "青葉区",
      "Notes" : "被災した住民の避難生活の場所、情報受伝達、備蓄機能を備えた拠点です。",
      "Address" : "黒須田34番地1",
      "lng" : 139.5329378,
      "lat" : 35.5682051
    },
    {
      "Name" : "あかね台中学校",
      "Ward" : "青葉区",
      "Notes" : "被災した住民の避難生活の場所、情報受伝達、備蓄機能を備えた拠点です。",
      "Address" : "あかね台二丁目8番2号",
      "lng" : 139.4848774,
      "lat" : 35.54115090000001
    },
    {
      "Name" : "美しが丘西小学校",
      "Ward" : "青葉区",
      "Notes" : "被災した住民の避難生活の場所、情報受伝達、備蓄機能を備えた拠点です。",
      "Address" : "美しが丘西二丁目48番1号",
      "lng" : 139.5346023,
      "lat" : 35.590207
    },
    {
      "Name" : "中川小学校",
      "Ward" : "都筑区",
      "Notes" : "被災した住民の避難生活の場所、情報受伝達、備蓄機能を備えた拠点です。",
      "Address" : "牛久保東二丁目21番1号",
      "lng" : 139.5874591,
      "lat" : 35.550639
    },
    {
      "Name" : "山田小学校",
      "Ward" : "都筑区",
      "Notes" : "被災した住民の避難生活の場所、情報受伝達、備蓄機能を備えた拠点です。",
      "Address" : "東山田三丁目29番1号",
      "lng" : 139.6030931,
      "lat" : 35.5600488
    },
    {
      "Name" : "勝田小学校",
      "Ward" : "都筑区",
      "Notes" : "被災した住民の避難生活の場所、情報受伝達、備蓄機能を備えた拠点です。",
      "Address" : "勝田町266番地",
      "lng" : 139.5951612,
      "lat" : 35.543468
    },
    {
      "Name" : "すみれが丘小学校",
      "Ward" : "都筑区",
      "Notes" : "被災した住民の避難生活の場所、情報受伝達、備蓄機能を備えた拠点です。",
      "Address" : "すみれが丘34番地",
      "lng" : 139.5798926,
      "lat" : 35.5661589
    },
    {
      "Name" : "茅ケ崎小学校",
      "Ward" : "都筑区",
      "Notes" : "被災した住民の避難生活の場所、情報受伝達、備蓄機能を備えた拠点です。",
      "Address" : "茅ケ崎南一丁目11番1号",
      "lng" : 139.5804739,
      "lat" : 35.5407708
    },
    {
      "Name" : "中川西小学校",
      "Ward" : "都筑区",
      "Notes" : "被災した住民の避難生活の場所、情報受伝達、備蓄機能を備えた拠点です。",
      "Address" : "中川一丁目3番1号",
      "lng" : 136.8662592,
      "lat" : 35.1339567
    },
    {
      "Name" : "都田小学校",
      "Ward" : "都筑区",
      "Notes" : "被災した住民の避難生活の場所、情報受伝達、備蓄機能を備えた拠点です。",
      "Address" : "池辺町2831番地",
      "lng" : 139.5715612,
      "lat" : 35.5224367
    },
    {
      "Name" : "川和小学校",
      "Ward" : "都筑区",
      "Notes" : "被災した住民の避難生活の場所、情報受伝達、備蓄機能を備えた拠点です。",
      "Address" : "川和町1463番地",
      "lng" : 139.5470159,
      "lat" : 35.5297048
    },
    {
      "Name" : "折本小学校",
      "Ward" : "都筑区",
      "Notes" : "被災した住民の避難生活の場所、情報受伝達、備蓄機能を備えた拠点です。",
      "Address" : "折本町1321番地",
      "lng" : 139.5945923,
      "lat" : 35.5284061
    },
    {
      "Name" : "荏田小学校",
      "Ward" : "都筑区",
      "Notes" : "被災した住民の避難生活の場所、情報受伝達、備蓄機能を備えた拠点です。",
      "Address" : "荏田南町694番地",
      "lng" : 139.5635944,
      "lat" : 35.5575849
    },
    {
      "Name" : "都田西小学校",
      "Ward" : "都筑区",
      "Notes" : "被災した住民の避難生活の場所、情報受伝達、備蓄機能を備えた拠点です。",
      "Address" : "池辺町2452番地1",
      "lng" : 139.5635173,
      "lat" : 35.5215005
    },
    {
      "Name" : "荏田東第一小学校",
      "Ward" : "都筑区",
      "Notes" : "被災した住民の避難生活の場所、情報受伝達、備蓄機能を備えた拠点です。",
      "Address" : "荏田東三丁目5番1号",
      "lng" : 139.5628836,
      "lat" : 35.5466946
    },
    {
      "Name" : "荏田南小学校",
      "Ward" : "都筑区",
      "Notes" : "被災した住民の避難生活の場所、情報受伝達、備蓄機能を備えた拠点です。",
      "Address" : "荏田南二丁目5番2号",
      "lng" : 139.5564537,
      "lat" : 35.5445114
    },
    {
      "Name" : "茅ケ崎台小学校",
      "Ward" : "都筑区",
      "Notes" : "被災した住民の避難生活の場所、情報受伝達、備蓄機能を備えた拠点です。",
      "Address" : "長坂13番地1",
      "lng" : 139.5699305,
      "lat" : 35.5374182
    },
    {
      "Name" : "川和東小学校",
      "Ward" : "都筑区",
      "Notes" : "被災した住民の避難生活の場所、情報受伝達、備蓄機能を備えた拠点です。",
      "Address" : "富士見が丘21番地2",
      "lng" : 139.5582094,
      "lat" : 35.5314769
    },
    {
      "Name" : "北山田小学校",
      "Ward" : "都筑区",
      "Notes" : "被災した住民の避難生活の場所、情報受伝達、備蓄機能を備えた拠点です。",
      "Address" : "北山田五丁目14番1号",
      "lng" : 139.5855338,
      "lat" : 35.5646202
    },
    {
      "Name" : "都筑小学校",
      "Ward" : "都筑区",
      "Notes" : "被災した住民の避難生活の場所、情報受伝達、備蓄機能を備えた拠点です。",
      "Address" : "中川六丁目2番1号",
      "lng" : 139.5747878,
      "lat" : 35.5564074
    },
    {
      "Name" : "南山田小学校",
      "Ward" : "都筑区",
      "Notes" : "被災した住民の避難生活の場所、情報受伝達、備蓄機能を備えた拠点です。",
      "Address" : "南山田二丁目27番1号",
      "lng" : 139.589317,
      "lat" : 35.5574685
    },
    {
      "Name" : "つづきの丘小学校",
      "Ward" : "都筑区",
      "Notes" : "被災した住民の避難生活の場所、情報受伝達、備蓄機能を備えた拠点です。",
      "Address" : "荏田東一丁目22番1号",
      "lng" : 139.5657751,
      "lat" : 35.5461947
    },
    {
      "Name" : "東山田小学校",
      "Ward" : "都筑区",
      "Notes" : "被災した住民の避難生活の場所、情報受伝達、備蓄機能を備えた拠点です。",
      "Address" : "東山田一丁目4番1号",
      "lng" : 139.5962493,
      "lat" : 35.5640981
    },
    {
      "Name" : "茅ケ崎東小学校",
      "Ward" : "都筑区",
      "Notes" : "被災した住民の避難生活の場所、情報受伝達、備蓄機能を備えた拠点です。",
      "Address" : "茅ケ崎東二丁目11番1号",
      "lng" : 139.5811849,
      "lat" : 35.5426233
    },
    {
      "Name" : "中川中学校",
      "Ward" : "都筑区",
      "Notes" : "被災した住民の避難生活の場所、情報受伝達、備蓄機能を備えた拠点です。",
      "Address" : "大棚町240番地",
      "lng" : 139.5931279,
      "lat" : 35.5515778
    },
    {
      "Name" : "茅ケ崎中学校",
      "Ward" : "都筑区",
      "Notes" : "被災した住民の避難生活の場所、情報受伝達、備蓄機能を備えた拠点です。",
      "Address" : "茅ケ崎南一丁目10番1号",
      "lng" : 139.5822265,
      "lat" : 35.5403737
    },
    {
      "Name" : "中川西中学校",
      "Ward" : "都筑区",
      "Notes" : "被災した住民の避難生活の場所、情報受伝達、備蓄機能を備えた拠点です。",
      "Address" : "中川二丁目1番1号",
      "lng" : 136.8782603,
      "lat" : 35.1383426
    },
    {
      "Name" : "都田中学校",
      "Ward" : "都筑区",
      "Notes" : "被災した住民の避難生活の場所、情報受伝達、備蓄機能を備えた拠点です。",
      "Address" : "池辺町2818番地",
      "lng" : 139.5699057,
      "lat" : 35.5230394
    },
    {
      "Name" : "川和中学校",
      "Ward" : "都筑区",
      "Notes" : "被災した住民の避難生活の場所、情報受伝達、備蓄機能を備えた拠点です。",
      "Address" : "富士見が丘21番地1",
      "lng" : 139.5568234,
      "lat" : 35.5311436
    },
    {
      "Name" : "牛久保小学校",
      "Ward" : "都筑区",
      "Notes" : "被災した住民の避難生活の場所、情報受伝達、備蓄機能を備えた拠点です。",
      "Address" : "牛久保一丁目23番",
      "lng" : 139.5819427,
      "lat" : 35.5590821
    },
    {
      "Name" : "境木小学校",
      "Ward" : "戸塚区",
      "Notes" : "被災した住民の避難生活の場所、情報受伝達、備蓄機能を備えた拠点です。",
      "Address" : "平戸三丁目48番2号",
      "lng" : 139.5694292,
      "lat" : 35.4369914
    },
    {
      "Name" : "戸塚小学校",
      "Ward" : "戸塚区",
      "Notes" : "被災した住民の避難生活の場所、情報受伝達、備蓄機能を備えた拠点です。",
      "Address" : "戸塚町132番地",
      "lng" : 139.532463,
      "lat" : 35.3973211
    },
    {
      "Name" : "汲沢小学校",
      "Ward" : "戸塚区",
      "Notes" : "被災した住民の避難生活の場所、情報受伝達、備蓄機能を備えた拠点です。",
      "Address" : "汲沢三丁目6番1号",
      "lng" : 139.5141449,
      "lat" : 35.3976347
    },
    {
      "Name" : "東戸塚小学校",
      "Ward" : "戸塚区",
      "Notes" : "被災した住民の避難生活の場所、情報受伝達、備蓄機能を備えた拠点です。",
      "Address" : "吉田町88番地",
      "lng" : 139.5380849,
      "lat" : 35.4017179
    },
    {
      "Name" : "大正小学校",
      "Ward" : "戸塚区",
      "Notes" : "被災した住民の避難生活の場所、情報受伝達、備蓄機能を備えた拠点です。",
      "Address" : "原宿四丁目17番1号",
      "lng" : 139.5033014,
      "lat" : 35.379568
    },
    {
      "Name" : "小雀小学校",
      "Ward" : "戸塚区",
      "Notes" : "被災した住民の避難生活の場所、情報受伝達、備蓄機能を備えた拠点です。",
      "Address" : "小雀町1845番地",
      "lng" : 139.5116507,
      "lat" : 35.3769906
    },
    {
      "Name" : "矢部小学校",
      "Ward" : "戸塚区",
      "Notes" : "被災した住民の避難生活の場所、情報受伝達、備蓄機能を備えた拠点です。",
      "Address" : "矢部町1698番地",
      "lng" : 139.5233886,
      "lat" : 35.4073001
    },
    {
      "Name" : "深谷台小学校",
      "Ward" : "戸塚区",
      "Notes" : "被災した住民の避難生活の場所、情報受伝達、備蓄機能を備えた拠点です。",
      "Address" : "深谷町1312番地1",
      "lng" : 139.4964715,
      "lat" : 35.3880973
    },
    {
      "Name" : "川上小学校",
      "Ward" : "戸塚区",
      "Notes" : "被災した住民の避難生活の場所、情報受伝達、備蓄機能を備えた拠点です。",
      "Address" : "秋葉町203番地2",
      "lng" : 139.5452118,
      "lat" : 35.4266091
    },
    {
      "Name" : "柏尾小学校",
      "Ward" : "戸塚区",
      "Notes" : "被災した住民の避難生活の場所、情報受伝達、備蓄機能を備えた拠点です。",
      "Address" : "柏尾町1317番地",
      "lng" : 139.5518199,
      "lat" : 35.4149469
    },
    {
      "Name" : "川上北小学校",
      "Ward" : "戸塚区",
      "Notes" : "被災した住民の避難生活の場所、情報受伝達、備蓄機能を備えた拠点です。",
      "Address" : "川上町63番地1",
      "lng" : 139.554136,
      "lat" : 35.4290727
    },
    {
      "Name" : "深谷小学校",
      "Ward" : "戸塚区",
      "Notes" : "被災した住民の避難生活の場所、情報受伝達、備蓄機能を備えた拠点です。",
      "Address" : "深谷町1688番地2",
      "lng" : 139.5028931,
      "lat" : 35.391594
    },
    {
      "Name" : "南戸塚小学校",
      "Ward" : "戸塚区",
      "Notes" : "被災した住民の避難生活の場所、情報受伝達、備蓄機能を備えた拠点です。",
      "Address" : "戸塚町2790番地3",
      "lng" : 139.5256829,
      "lat" : 35.3881195
    },
    {
      "Name" : "平戸小学校",
      "Ward" : "戸塚区",
      "Notes" : "被災した住民の避難生活の場所、情報受伝達、備蓄機能を備えた拠点です。",
      "Address" : "平戸町542番地",
      "lng" : 139.5637409,
      "lat" : 35.4267899
    },
    {
      "Name" : "東汲沢小学校",
      "Ward" : "戸塚区",
      "Notes" : "被災した住民の避難生活の場所、情報受伝達、備蓄機能を備えた拠点です。",
      "Address" : "汲沢一丁目16番1号",
      "lng" : 139.5213915,
      "lat" : 35.3994372
    },
    {
      "Name" : "名瀬小学校",
      "Ward" : "戸塚区",
      "Notes" : "被災した住民の避難生活の場所、情報受伝達、備蓄機能を備えた拠点です。",
      "Address" : "名瀬町776番地",
      "lng" : 139.5412481,
      "lat" : 35.4310695
    },
    {
      "Name" : "俣野小学校",
      "Ward" : "戸塚区",
      "Notes" : "被災した住民の避難生活の場所、情報受伝達、備蓄機能を備えた拠点です。",
      "Address" : "俣野町371番地",
      "lng" : 139.4956271,
      "lat" : 35.3783682
    },
    {
      "Name" : "平戸台小学校",
      "Ward" : "戸塚区",
      "Notes" : "被災した住民の避難生活の場所、情報受伝達、備蓄機能を備えた拠点です。",
      "Address" : "平戸町1165番地",
      "lng" : 139.5679379,
      "lat" : 35.4229821
    },
    {
      "Name" : "鳥が丘小学校",
      "Ward" : "戸塚区",
      "Notes" : "被災した住民の避難生活の場所、情報受伝達、備蓄機能を備えた拠点です。",
      "Address" : "鳥が丘53番地",
      "lng" : 139.522297,
      "lat" : 35.4111829
    },
    {
      "Name" : "南舞岡小学校",
      "Ward" : "戸塚区",
      "Notes" : "被災した住民の避難生活の場所、情報受伝達、備蓄機能を備えた拠点です。",
      "Address" : "南舞岡四丁目15番1号",
      "lng" : 139.5546478,
      "lat" : 35.3888172
    },
    {
      "Name" : "上矢部小学校",
      "Ward" : "戸塚区",
      "Notes" : "被災した住民の避難生活の場所、情報受伝達、備蓄機能を備えた拠点です。",
      "Address" : "上矢部町1463番地4",
      "lng" : 139.528352,
      "lat" : 35.4235482
    },
    {
      "Name" : "品濃小学校",
      "Ward" : "戸塚区",
      "Notes" : "被災した住民の避難生活の場所、情報受伝達、備蓄機能を備えた拠点です。",
      "Address" : "品濃町504番地1",
      "lng" : 139.5573553,
      "lat" : 35.4261565
    },
    {
      "Name" : "秋葉小学校",
      "Ward" : "戸塚区",
      "Notes" : "被災した住民の避難生活の場所、情報受伝達、備蓄機能を備えた拠点です。",
      "Address" : "秋葉町392番地1",
      "lng" : 139.5441009,
      "lat" : 35.4207821
    },
    {
      "Name" : "東俣野小学校",
      "Ward" : "戸塚区",
      "Notes" : "被災した住民の避難生活の場所、情報受伝達、備蓄機能を備えた拠点です。",
      "Address" : "東俣野町1103番地1",
      "lng" : 139.4965473,
      "lat" : 35.3679291
    },
    {
      "Name" : "舞岡小学校",
      "Ward" : "戸塚区",
      "Notes" : "被災した住民の避難生活の場所、情報受伝達、備蓄機能を備えた拠点です。",
      "Address" : "舞岡町534番地",
      "lng" : 139.5509451,
      "lat" : 35.4070703
    },
    {
      "Name" : "倉田小学校",
      "Ward" : "戸塚区",
      "Notes" : "被災した住民の避難生活の場所、情報受伝達、備蓄機能を備えた拠点です。",
      "Address" : "上倉田町1426番地6",
      "lng" : 139.540882,
      "lat" : 35.3895113
    },
    {
      "Name" : "東品濃小学校",
      "Ward" : "戸塚区",
      "Notes" : "被災した住民の避難生活の場所、情報受伝達、備蓄機能を備えた拠点です。",
      "Address" : "品濃町559番地",
      "lng" : 139.5607243,
      "lat" : 35.4341748
    },
    {
      "Name" : "下郷小学校",
      "Ward" : "戸塚区",
      "Notes" : "被災した住民の避難生活の場所、情報受伝達、備蓄機能を備えた拠点です。",
      "Address" : "戸塚町2447番地2",
      "lng" : 139.5236302,
      "lat" : 35.3864559
    },
    {
      "Name" : "境木中学校",
      "Ward" : "戸塚区",
      "Notes" : "被災した住民の避難生活の場所、情報受伝達、備蓄機能を備えた拠点です。",
      "Address" : "平戸三丁目48番2号",
      "lng" : 139.5694292,
      "lat" : 35.4369914
    },
    {
      "Name" : "戸塚中学校",
      "Ward" : "戸塚区",
      "Notes" : "被災した住民の避難生活の場所、情報受伝達、備蓄機能を備えた拠点です。",
      "Address" : "戸塚町4542番地",
      "lng" : 139.5237302,
      "lat" : 35.4017703
    },
    {
      "Name" : "大正中学校",
      "Ward" : "戸塚区",
      "Notes" : "被災した住民の避難生活の場所、情報受伝達、備蓄機能を備えた拠点です。",
      "Address" : "原宿四丁目12番1号",
      "lng" : 139.5031792,
      "lat" : 35.37831540000001
    },
    {
      "Name" : "舞岡中学校",
      "Ward" : "戸塚区",
      "Notes" : "被災した住民の避難生活の場所、情報受伝達、備蓄機能を備えた拠点です。",
      "Address" : "舞岡町226番地",
      "lng" : 139.5448872,
      "lat" : 35.4088866
    },
    {
      "Name" : "豊田中学校",
      "Ward" : "戸塚区",
      "Notes" : "被災した住民の避難生活の場所、情報受伝達、備蓄機能を備えた拠点です。",
      "Address" : "下倉田町950番地",
      "lng" : 139.542318,
      "lat" : 35.3821789
    },
    {
      "Name" : "汲沢中学校",
      "Ward" : "戸塚区",
      "Notes" : "被災した住民の避難生活の場所、情報受伝達、備蓄機能を備えた拠点です。",
      "Address" : "汲沢町550番地2",
      "lng" : 139.5074761,
      "lat" : 35.3984651
    },
    {
      "Name" : "名瀬中学校",
      "Ward" : "戸塚区",
      "Notes" : "被災した住民の避難生活の場所、情報受伝達、備蓄機能を備えた拠点です。",
      "Address" : "名瀬町791番地6",
      "lng" : 139.543634,
      "lat" : 35.4339552
    },
    {
      "Name" : "南戸塚中学校",
      "Ward" : "戸塚区",
      "Notes" : "被災した住民の避難生活の場所、情報受伝達、備蓄機能を備えた拠点です。",
      "Address" : "戸塚町1842番地1",
      "lng" : 139.5182612,
      "lat" : 35.3811455
    },
    {
      "Name" : "本郷小学校",
      "Ward" : "栄区",
      "Notes" : "被災した住民の避難生活の場所、情報受伝達、備蓄機能を備えた拠点です。",
      "Address" : "中野町16番地1",
      "lng" : 139.5612805,
      "lat" : 35.3631925
    },
    {
      "Name" : "豊田小学校",
      "Ward" : "栄区",
      "Notes" : "被災した住民の避難生活の場所、情報受伝達、備蓄機能を備えた拠点です。",
      "Address" : "長沼町125番地4",
      "lng" : 139.5360045,
      "lat" : 35.382576
    },
    {
      "Name" : "千秀小学校",
      "Ward" : "栄区",
      "Notes" : "被災した住民の避難生活の場所、情報受伝達、備蓄機能を備えた拠点です。",
      "Address" : "田谷町1832番地",
      "lng" : 139.5197472,
      "lat" : 35.3716275
    },
    {
      "Name" : "飯島小学校",
      "Ward" : "栄区",
      "Notes" : "被災した住民の避難生活の場所、情報受伝達、備蓄機能を備えた拠点です。",
      "Address" : "飯島町771番地2",
      "lng" : 139.5350712,
      "lat" : 35.3732134
    },
    {
      "Name" : "桂台小学校",
      "Ward" : "栄区",
      "Notes" : "被災した住民の避難生活の場所、情報受伝達、備蓄機能を備えた拠点です。",
      "Address" : "桂台南一丁目1番1号",
      "lng" : 44.6267009,
      "lat" : 32.4964607
    },
    {
      "Name" : "西本郷小学校",
      "Ward" : "栄区",
      "Notes" : "被災した住民の避難生活の場所、情報受伝達、備蓄機能を備えた拠点です。",
      "Address" : "小菅ケ谷二丁目22番1号",
      "lng" : 139.5419652,
      "lat" : 35.3658255
    },
    {
      "Name" : "旧・野七里小学校",
      "Ward" : "栄区",
      "Notes" : "被災した住民の避難生活の場所、情報受伝達、備蓄機能を備えた拠点です。",
      "Address" : "野七里二丁目3番1号",
      "lng" : 139.5789067,
      "lat" : 35.3460917
    },
    {
      "Name" : "本郷台小学校",
      "Ward" : "栄区",
      "Notes" : "被災した住民の避難生活の場所、情報受伝達、備蓄機能を備えた拠点です。",
      "Address" : "本郷台一丁目6番1号",
      "lng" : 139.5491898,
      "lat" : 35.3712609
    },
    {
      "Name" : "上郷小学校",
      "Ward" : "栄区",
      "Notes" : "被災した住民の避難生活の場所、情報受伝達、備蓄機能を備えた拠点です。",
      "Address" : "犬山町6番地1",
      "lng" : 139.5719462,
      "lat" : 35.3574404
    },
    {
      "Name" : "小菅ケ谷小学校",
      "Ward" : "栄区",
      "Notes" : "被災した住民の避難生活の場所、情報受伝達、備蓄機能を備えた拠点です。",
      "Address" : "本郷台四丁目31番1号",
      "lng" : 139.5482093,
      "lat" : 35.3770546
    },
    {
      "Name" : "公田小学校",
      "Ward" : "栄区",
      "Notes" : "被災した住民の避難生活の場所、情報受伝達、備蓄機能を備えた拠点です。",
      "Address" : "公田町354番地3",
      "lng" : 139.5538312,
      "lat" : 35.3543963
    },
    {
      "Name" : "庄戸小学校",
      "Ward" : "栄区",
      "Notes" : "被災した住民の避難生活の場所、情報受伝達、備蓄機能を備えた拠点です。",
      "Address" : "庄戸一丁目15番1号",
      "lng" : 139.5843062,
      "lat" : 35.3530603
    },
    {
      "Name" : "小山台小学校",
      "Ward" : "栄区",
      "Notes" : "被災した住民の避難生活の場所、情報受伝達、備蓄機能を備えた拠点です。",
      "Address" : "小山台一丁目15番1号",
      "lng" : 139.5576309,
      "lat" : 35.3802737
    },
    {
      "Name" : "笠間小学校",
      "Ward" : "栄区",
      "Notes" : "被災した住民の避難生活の場所、情報受伝達、備蓄機能を備えた拠点です。",
      "Address" : "笠間三丁目28番1号",
      "lng" : 139.5318964,
      "lat" : 35.3619343
    },
    {
      "Name" : "桜井小学校",
      "Ward" : "栄区",
      "Notes" : "被災した住民の避難生活の場所、情報受伝達、備蓄機能を備えた拠点です。",
      "Address" : "上郷町242番地2",
      "lng" : 139.5723712,
      "lat" : 35.3660921
    },
    {
      "Name" : "本郷中学校",
      "Ward" : "栄区",
      "Notes" : "被災した住民の避難生活の場所、情報受伝達、備蓄機能を備えた拠点です。",
      "Address" : "桂町84番地14",
      "lng" : 139.550498,
      "lat" : 35.3648589
    },
    {
      "Name" : "桂台中学校",
      "Ward" : "栄区",
      "Notes" : "被災した住民の避難生活の場所、情報受伝達、備蓄機能を備えた拠点です。",
      "Address" : "桂台中5番地1",
      "lng" : null,
      "lat" : null
    },
    {
      "Name" : "西本郷中学校",
      "Ward" : "栄区",
      "Notes" : "被災した住民の避難生活の場所、情報受伝達、備蓄機能を備えた拠点です。",
      "Address" : "小菅ケ谷一丁目29番1号",
      "lng" : 139.5429596,
      "lat" : 35.3637674
    },
    {
      "Name" : "飯島中学校",
      "Ward" : "栄区",
      "Notes" : "被災した住民の避難生活の場所、情報受伝達、備蓄機能を備えた拠点です。",
      "Address" : "飯島町746番地1",
      "lng" : 139.5320769,
      "lat" : 35.3726302
    },
    {
      "Name" : "庄戸中学校",
      "Ward" : "栄区",
      "Notes" : "被災した住民の避難生活の場所、情報受伝達、備蓄機能を備えた拠点です。",
      "Address" : "庄戸三丁目1番1号",
      "lng" : 139.5853089,
      "lat" : 35.3519077
    },
    {
      "Name" : "中和田小学校",
      "Ward" : "泉区",
      "Notes" : "被災した住民の避難生活の場所、情報受伝達、備蓄機能を備えた拠点です。",
      "Address" : "和泉町3721番地",
      "lng" : 139.4909387,
      "lat" : 35.4158796
    },
    {
      "Name" : "中田小学校",
      "Ward" : "泉区",
      "Notes" : "被災した住民の避難生活の場所、情報受伝達、備蓄機能を備えた拠点です。",
      "Address" : "中田南四丁目4番1号",
      "lng" : 139.5076621,
      "lat" : 35.4108163
    },
    {
      "Name" : "岡津小学校",
      "Ward" : "泉区",
      "Notes" : "被災した住民の避難生活の場所、情報受伝達、備蓄機能を備えた拠点です。",
      "Address" : "岡津町2311番地",
      "lng" : 139.5247551,
      "lat" : 35.4282865
    },
    {
      "Name" : "下和泉小学校",
      "Ward" : "泉区",
      "Notes" : "被災した住民の避難生活の場所、情報受伝達、備蓄機能を備えた拠点です。",
      "Address" : "和泉町1436番地",
      "lng" : 139.4931273,
      "lat" : 35.4012925
    },
    {
      "Name" : "中和田南小学校",
      "Ward" : "泉区",
      "Notes" : "被災した住民の避難生活の場所、情報受伝達、備蓄機能を備えた拠点です。",
      "Address" : "和泉町987番地",
      "lng" : 139.483792,
      "lat" : 35.3980263
    },
    {
      "Name" : "上飯田小学校",
      "Ward" : "泉区",
      "Notes" : "被災した住民の避難生活の場所、情報受伝達、備蓄機能を備えた拠点です。",
      "Address" : "上飯田町1331番地",
      "lng" : 139.4794894,
      "lat" : 35.4240368
    },
    {
      "Name" : "東中田小学校",
      "Ward" : "泉区",
      "Notes" : "被災した住民の避難生活の場所、情報受伝達、備蓄機能を備えた拠点です。",
      "Address" : "中田東四丁目43番1号",
      "lng" : 139.5115368,
      "lat" : 35.4176433
    },
    {
      "Name" : "新橋小学校",
      "Ward" : "泉区",
      "Notes" : "被災した住民の避難生活の場所、情報受伝達、備蓄機能を備えた拠点です。",
      "Address" : "新橋町909番地",
      "lng" : 139.5066206,
      "lat" : 35.434369
    },
    {
      "Name" : "和泉小学校",
      "Ward" : "泉区",
      "Notes" : "被災した住民の避難生活の場所、情報受伝達、備蓄機能を備えた拠点です。",
      "Address" : "和泉町4320番地",
      "lng" : 139.4963076,
      "lat" : 35.4228065
    },
    {
      "Name" : "いちょう小学校",
      "Ward" : "泉区",
      "Notes" : "被災した住民の避難生活の場所、情報受伝達、備蓄機能を備えた拠点です。",
      "Address" : "上飯田町3220番地4",
      "lng" : 139.4751619,
      "lat" : 35.4316468
    },
    {
      "Name" : "葛野小学校",
      "Ward" : "泉区",
      "Notes" : "被災した住民の避難生活の場所、情報受伝達、備蓄機能を備えた拠点です。",
      "Address" : "中田南五丁目15番1号",
      "lng" : 139.508051,
      "lat" : 35.4041921
    },
    {
      "Name" : "いずみ野小学校",
      "Ward" : "泉区",
      "Notes" : "被災した住民の避難生活の場所、情報受伝達、備蓄機能を備えた拠点です。",
      "Address" : "和泉町6211番地",
      "lng" : 139.4946328,
      "lat" : 35.43427459999999
    },
    {
      "Name" : "飯田北小学校",
      "Ward" : "泉区",
      "Notes" : "被災した住民の避難生活の場所、情報受伝達、備蓄機能を備えた拠点です。",
      "Address" : "上飯田町3795番地",
      "lng" : 139.4815615,
      "lat" : 35.4343966
    },
    {
      "Name" : "伊勢山小学校",
      "Ward" : "泉区",
      "Notes" : "被災した住民の避難生活の場所、情報受伝達、備蓄機能を備えた拠点です。",
      "Address" : "和泉町2868番地",
      "lng" : 139.4969687,
      "lat" : 35.4108357
    },
    {
      "Name" : "緑園東小学校",
      "Ward" : "泉区",
      "Notes" : "被災した住民の避難生活の場所、情報受伝達、備蓄機能を備えた拠点です。",
      "Address" : "緑園五丁目28番",
      "lng" : 139.5262994,
      "lat" : 35.443804
    },
    {
      "Name" : "緑園西小学校",
      "Ward" : "泉区",
      "Notes" : "被災した住民の避難生活の場所、情報受伝達、備蓄機能を備えた拠点です。",
      "Address" : "緑園三丁目39番",
      "lng" : 139.5177085,
      "lat" : 35.4404239
    },
    {
      "Name" : "西が岡小学校",
      "Ward" : "泉区",
      "Notes" : "被災した住民の避難生活の場所、情報受伝達、備蓄機能を備えた拠点です。",
      "Address" : "西が岡三丁目12番11号",
      "lng" : 139.5154364,
      "lat" : 35.4190653
    },
    {
      "Name" : "中和田中学校",
      "Ward" : "泉区",
      "Notes" : "被災した住民の避難生活の場所、情報受伝達、備蓄機能を備えた拠点です。",
      "Address" : "和泉町4062番地",
      "lng" : 139.4982463,
      "lat" : 35.4159962
    },
    {
      "Name" : "中田中学校",
      "Ward" : "泉区",
      "Notes" : "被災した住民の避難生活の場所、情報受伝達、備蓄機能を備えた拠点です。",
      "Address" : "中田北二丁目20番1号",
      "lng" : 139.5054151,
      "lat" : 35.4146908
    },
    {
      "Name" : "泉が丘中学校",
      "Ward" : "泉区",
      "Notes" : "被災した住民の避難生活の場所、情報受伝達、備蓄機能を備えた拠点です。",
      "Address" : "和泉町2221番地",
      "lng" : 140.4032659,
      "lat" : 35.31360970000001
    },
    {
      "Name" : "上飯田中学校",
      "Ward" : "泉区",
      "Notes" : "被災した住民の避難生活の場所、情報受伝達、備蓄機能を備えた拠点です。",
      "Address" : "上飯田町2254番地",
      "lng" : 139.4816476,
      "lat" : 35.4297972
    },
    {
      "Name" : "いずみ野中学校",
      "Ward" : "泉区",
      "Notes" : "被災した住民の避難生活の場所、情報受伝達、備蓄機能を備えた拠点です。",
      "Address" : "和泉町6201番地",
      "lng" : 139.4976408,
      "lat" : 35.4318193
    },
    {
      "Name" : "領家中学校",
      "Ward" : "泉区",
      "Notes" : "被災した住民の避難生活の場所、情報受伝達、備蓄機能を備えた拠点です。",
      "Address" : "領家四丁目3番1号",
      "lng" : 139.5210721,
      "lat" : 35.4156657
    },
    {
      "Name" : "原小学校",
      "Ward" : "瀬谷区",
      "Notes" : "被災した住民の避難生活の場所、情報受伝達、備蓄機能を備えた拠点です。",
      "Address" : "阿久和東四丁目33番1号",
      "lng" : 139.5005042,
      "lat" : 35.4474841
    },
    {
      "Name" : "上瀬谷小学校",
      "Ward" : "瀬谷区",
      "Notes" : "被災した住民の避難生活の場所、情報受伝達、備蓄機能を備えた拠点です。",
      "Address" : "瀬谷町7140番地",
      "lng" : 139.4770433,
      "lat" : 35.48967950000001
    },
    {
      "Name" : "瀬谷小学校",
      "Ward" : "瀬谷区",
      "Notes" : "被災した住民の避難生活の場所、情報受伝達、備蓄機能を備えた拠点です。",
      "Address" : "相沢四丁目1番1号",
      "lng" : 139.4841492,
      "lat" : 35.4722141
    },
    {
      "Name" : "三ツ境小学校",
      "Ward" : "瀬谷区",
      "Notes" : "被災した住民の避難生活の場所、情報受伝達、備蓄機能を備えた拠点です。",
      "Address" : "三ツ境157番地",
      "lng" : 139.4980486,
      "lat" : 35.460552
    },
    {
      "Name" : "南瀬谷小学校",
      "Ward" : "瀬谷区",
      "Notes" : "被災した住民の避難生活の場所、情報受伝達、備蓄機能を備えた拠点です。",
      "Address" : "南瀬谷一丁目1番1号",
      "lng" : 139.48653,
      "lat" : 35.457444
    },
    {
      "Name" : "二つ橋小学校",
      "Ward" : "瀬谷区",
      "Notes" : "被災した住民の避難生活の場所、情報受伝達、備蓄機能を備えた拠点です。",
      "Address" : "二ツ橋町507番地",
      "lng" : 139.4973373,
      "lat" : 35.4728392
    },
    {
      "Name" : "瀬谷第二小学校",
      "Ward" : "瀬谷区",
      "Notes" : "被災した住民の避難生活の場所、情報受伝達、備蓄機能を備えた拠点です。",
      "Address" : "橋戸二丁目41番1号",
      "lng" : 139.4821358,
      "lat" : 35.4607629
    },
    {
      "Name" : "相沢小学校",
      "Ward" : "瀬谷区",
      "Notes" : "被災した住民の避難生活の場所、情報受伝達、備蓄機能を備えた拠点です。",
      "Address" : "相沢二丁目56番1号",
      "lng" : 139.4898071,
      "lat" : 35.4751192
    },
    {
      "Name" : "大門小学校",
      "Ward" : "瀬谷区",
      "Notes" : "被災した住民の避難生活の場所、情報受伝達、備蓄機能を備えた拠点です。",
      "Address" : "本郷三丁目47番5号",
      "lng" : 139.4751469,
      "lat" : 35.4715668
    },
    {
      "Name" : "瀬谷さくら小学校",
      "Ward" : "瀬谷区",
      "Notes" : "被災した住民の避難生活の場所、情報受伝達、備蓄機能を備えた拠点です。",
      "Address" : "下瀬谷三丁目58番1号",
      "lng" : 139.4811,
      "lat" : 35.4511807
    },
    {
      "Name" : "県立横浜ひなたやま支援学校",
      "Ward" : "瀬谷区",
      "Notes" : "被災した住民の避難生活の場所、情報受伝達、備蓄機能を備えた拠点です。",
      "Address" : "南瀬谷二丁目20番",
      "lng" : 139.4859526,
      "lat" : 35.4455926
    },
    {
      "Name" : "阿久和小学校",
      "Ward" : "瀬谷区",
      "Notes" : "被災した住民の避難生活の場所、情報受伝達、備蓄機能を備えた拠点です。",
      "Address" : "阿久和南四丁目8番2号",
      "lng" : 47.2053337,
      "lat" : 37.2702535
    },
    {
      "Name" : "瀬谷中学校",
      "Ward" : "瀬谷区",
      "Notes" : "被災した住民の避難生活の場所、情報受伝達、備蓄機能を備えた拠点です。",
      "Address" : "中央5番地41",
      "lng" : 130.5464418,
      "lat" : 31.5845046
    },
    {
      "Name" : "原中学校",
      "Ward" : "瀬谷区",
      "Notes" : "被災した住民の避難生活の場所、情報受伝達、備蓄機能を備えた拠点です。",
      "Address" : "阿久和西二丁目1番6号",
      "lng" : 34.9356512,
      "lat" : 32.0672016
    },
    {
      "Name" : "南瀬谷中学校",
      "Ward" : "瀬谷区",
      "Notes" : "被災した住民の避難生活の場所、情報受伝達、備蓄機能を備えた拠点です。",
      "Address" : "南台二丁目2番8号",
      "lng" : 139.4855412,
      "lat" : 35.4578495
    }
  ]
}