{
  "rows" : [
    {
      "Type" : "民間施設",
      "Ward" : "鶴見区",
      "Name" : "キリンビール株式会社横浜工場　総合棟",
      "Address" : "生麦1-17-1",
      "lng" : 139.6641833,
      "lat" : 35.4901918,
      "AvailableTime" : "24時間365日"
    },
    {
      "Type" : "民間施設",
      "Ward" : "鶴見区",
      "Name" : "株式会社松尾工務店",
      "Address" : "鶴見中央四丁目38番35号",
      "lng" : 139.6807705,
      "lat" : 35.5069039,
      "AvailableTime" : "平日8:30～17:30"
    },
    {
      "Type" : "民間施設",
      "Ward" : "鶴見区",
      "Name" : "横浜港国際流通センター事務所棟",
      "Address" : "大黒ふ頭22番",
      "lng" : 139.697826,
      "lat" : 35.4553206,
      "AvailableTime" : "24時間365日"
    },
    {
      "Type" : "民間施設",
      "Ward" : "鶴見区",
      "Name" : "GLP横浜",
      "Address" : "生麦二丁目2-26",
      "lng" : 139.6746268,
      "lat" : 35.4940471,
      "AvailableTime" : "24時間365日"
    },
    {
      "Type" : "民間施設",
      "Ward" : "神奈川区",
      "Name" : "神奈川歯科大学附属横浜クリニック",
      "Address" : "鶴屋町３丁目31番地６",
      "lng" : 139.6200317,
      "lat" : 35.4684382,
      "AvailableTime" : "9:00～17:00\n（日曜・祝日を除く）"
    },
    {
      "Type" : "民間施設",
      "Ward" : "神奈川区",
      "Name" : "孝道山本仏殿",
      "Address" : "神奈川区鳥越38",
      "lng" : 139.6329915,
      "lat" : 35.4827255,
      "AvailableTime" : "敷地内24時間365日\n施設内5:00～21:00"
    },
    {
      "Type" : "民間施設",
      "Ward" : "神奈川区",
      "Name" : "谷川ビル",
      "Address" : "鶴屋町2-24-1",
      "lng" : 139.6207816,
      "lat" : 35.4688103,
      "AvailableTime" : "月～金　9:00～17:00"
    },
    {
      "Type" : "民間施設",
      "Ward" : "神奈川区",
      "Name" : "東横イン横浜新子安駅前",
      "Address" : "子安通2-240-32",
      "lng" : 139.6534841,
      "lat" : 35.4861476,
      "AvailableTime" : "10:00～16:00"
    },
    {
      "Type" : "民間施設",
      "Ward" : "神奈川区",
      "Name" : "横浜中央看護専門学校",
      "Address" : "神奈川区新町11-1",
      "lng" : 139.6394271,
      "lat" : 35.4803064,
      "AvailableTime" : "月～金8:00～19:00\n（土日祝日を除く）"
    },
    {
      "Type" : "民間施設",
      "Ward" : "神奈川区",
      "Name" : "ディアスタ新子安ベイスタイル",
      "Address" : "子安通三丁目342－１",
      "lng" : 139.6564089,
      "lat" : 35.4862143,
      "AvailableTime" : "24時間365日"
    },
    {
      "Type" : "民間施設",
      "Ward" : "神奈川区",
      "Name" : "クレストシティタワーズ横浜",
      "Address" : "子安通三丁目353",
      "lng" : 139.6585532,
      "lat" : 35.4873504,
      "AvailableTime" : "24時間365日"
    },
    {
      "Type" : "民間施設",
      "Ward" : "西区",
      "Name" : "岡野パークハイツ",
      "Address" : "岡野二丁目13番地５号",
      "lng" : 139.6108358,
      "lat" : 35.461089,
      "AvailableTime" : "24時間365日"
    },
    {
      "Type" : "民間施設",
      "Ward" : "西区",
      "Name" : "ケンセイビル",
      "Address" : "浅間町五丁目３８７番地８",
      "lng" : 139.6052255,
      "lat" : 35.4551675,
      "AvailableTime" : "平日8:30～17:30\n（土日祝日を除く）"
    },
    {
      "Type" : "民間施設",
      "Ward" : "西区",
      "Name" : "日産自動車本社ビル",
      "Address" : "高島一丁目１番１号",
      "lng" : 139.6257563,
      "lat" : 35.4629583,
      "AvailableTime" : "24時間365日"
    },
    {
      "Type" : "民間施設",
      "Ward" : "西区",
      "Name" : "パシフィコ横浜",
      "Address" : "みなとみらい一丁目１番１号",
      "lng" : 139.635714,
      "lat" : 35.4587199,
      "AvailableTime" : "24時間365日"
    },
    {
      "Type" : "民間施設",
      "Ward" : "西区",
      "Name" : "ハマボール イアス",
      "Address" : "北幸二丁目２番１号",
      "lng" : 139.6174348,
      "lat" : 35.465844,
      "AvailableTime" : "24時間365日"
    },
    {
      "Type" : "民間施設",
      "Ward" : "西区",
      "Name" : "ホテルキャメロットジャパン",
      "Address" : "北幸1-11-3",
      "lng" : 139.6183819,
      "lat" : 35.4679243,
      "AvailableTime" : "24時間365日"
    },
    {
      "Type" : "民間施設",
      "Ward" : "西区",
      "Name" : "HOTEL PLUMM/COSMO Y.",
      "Address" : "北幸二丁目９番１号",
      "lng" : 139.6159322,
      "lat" : 35.4665078,
      "AvailableTime" : "24時間365日"
    },
    {
      "Type" : "民間施設",
      "Ward" : "西区",
      "Name" : "横浜国際ホテル",
      "Address" : "南幸2-16-28",
      "lng" : 139.6175182,
      "lat" : 35.4648941,
      "AvailableTime" : "24時間365日"
    },
    {
      "Type" : "民間施設",
      "Ward" : "西区",
      "Name" : "ヨコハマグランドインターコンチネンタルホテル",
      "Address" : "みなとみらい一丁目１番１号",
      "lng" : 139.635714,
      "lat" : 35.4587199,
      "AvailableTime" : "24時間365日"
    },
    {
      "Type" : "民間施設",
      "Ward" : "西区",
      "Name" : "ラウンドワン　横浜駅西口店",
      "Address" : "南幸二丁目８番16号",
      "lng" : 139.6181182,
      "lat" : 35.4638693,
      "AvailableTime" : "24時間365日"
    },
    {
      "Type" : "民間施設",
      "Ward" : "西区",
      "Name" : "立正佼成会横浜教会普門館",
      "Address" : "北幸2-7-3",
      "lng" : 139.6169821,
      "lat" : 35.4680604,
      "AvailableTime" : "24時間365日"
    },
    {
      "Type" : "民間施設",
      "Ward" : "中区",
      "Name" : "エスカル横浜",
      "Address" : "山下町84番地",
      "lng" : 139.6494138,
      "lat" : 35.4427246,
      "AvailableTime" : "24時間365日"
    },
    {
      "Type" : "民間施設",
      "Ward" : "中区",
      "Name" : "M.O.R.パーキング",
      "Address" : "長者町１丁目４番地３",
      "lng" : 139.6368537,
      "lat" : 35.4380251,
      "AvailableTime" : "24時間365日"
    },
    {
      "Type" : "民間施設",
      "Ward" : "中区",
      "Name" : "学校法人横浜山手中華学園",
      "Address" : "吉浜町２番地66",
      "lng" : 139.6414144,
      "lat" : 35.4394472,
      "AvailableTime" : "8:30～17:00"
    },
    {
      "Type" : "民間施設",
      "Ward" : "中区",
      "Name" : "割烹蒲焼わかな（鈴木ビル）",
      "Address" : "港町５丁目20番地",
      "lng" : 141.6949252,
      "lat" : 44.3663375,
      "AvailableTime" : "11:00～21:00"
    },
    {
      "Type" : "民間施設",
      "Ward" : "中区",
      "Name" : "関内新井ビル",
      "Address" : "尾上町１丁目８番地",
      "lng" : 136.6340898,
      "lat" : 34.961013,
      "AvailableTime" : "9:00～22:00\n（土日祝日及び12/29～1/3を除く）"
    },
    {
      "Type" : "民間施設",
      "Ward" : "中区",
      "Name" : "関内中央ビル （市庁舎側）",
      "Address" : "真砂町２丁目22番地",
      "lng" : 139.6366562,
      "lat" : 35.4444744,
      "AvailableTime" : "24時間365日"
    },
    {
      "Type" : "民間施設",
      "Ward" : "中区",
      "Name" : "クロスゲート",
      "Address" : "桜木町１丁目101番地１",
      "lng" : 139.6326979,
      "lat" : 35.4508125,
      "AvailableTime" : "24時間365日"
    },
    {
      "Type" : "民間施設",
      "Ward" : "中区",
      "Name" : "ゴールドジム横浜馬車道本館",
      "Address" : "弁天通４丁目67-1 スクエアビル４階",
      "lng" : 139.6366415,
      "lat" : 35.4484344,
      "AvailableTime" : "・月曜10時～日曜20時まで（24時間営業）\n・祝日20時まで　\u203b第2金曜日前日の木曜日は23時まで"
    },
    {
      "Type" : "民間施設",
      "Ward" : "中区",
      "Name" : "コンフォートホテル横浜関内",
      "Address" : "住吉町3丁目33",
      "lng" : 139.6368839,
      "lat" : 35.4467852,
      "AvailableTime" : "24時間365日"
    },
    {
      "Type" : "民間施設",
      "Ward" : "中区",
      "Name" : "島忠ホームズ新山下店",
      "Address" : "新山下二丁目１２番３４号",
      "lng" : 139.6599243,
      "lat" : 35.4398083,
      "AvailableTime" : "10:00～21:00"
    },
    {
      "Type" : "民間施設",
      "Ward" : "中区",
      "Name" : "シルクセンター国際貿易観光会館",
      "Address" : "山下町1",
      "lng" : 139.6452555,
      "lat" : 35.4475379,
      "AvailableTime" : "24時間365日"
    },
    {
      "Type" : "民間施設",
      "Ward" : "中区",
      "Name" : "スターホテル横浜",
      "Address" : "山下町11番地",
      "lng" : 139.6502081,
      "lat" : 35.444566,
      "AvailableTime" : "24時間365日"
    },
    {
      "Type" : "民間施設",
      "Ward" : "中区",
      "Name" : "創価学会神奈川文化会館",
      "Address" : "山下町７－１",
      "lng" : 139.6483637,
      "lat" : 35.4457381,
      "AvailableTime" : "9:00～21:00"
    },
    {
      "Type" : "民間施設",
      "Ward" : "中区",
      "Name" : "ダイワロイネットホテル横浜公園",
      "Address" : "山下町204番地１",
      "lng" : 139.6420725,
      "lat" : 35.4435467,
      "AvailableTime" : "24時間365日"
    },
    {
      "Type" : "民間施設",
      "Ward" : "中区",
      "Name" : "ナビオス横浜",
      "Address" : "新港二丁目１番１号",
      "lng" : 139.6389418,
      "lat" : 35.4526789,
      "AvailableTime" : "24時間365日"
    },
    {
      "Type" : "民間施設",
      "Ward" : "中区",
      "Name" : "パーキング９　ヨシダ",
      "Address" : "長者町９丁目168番地",
      "lng" : 139.6281568,
      "lat" : 35.4440744,
      "AvailableTime" : "24時間365日"
    },
    {
      "Type" : "民間施設",
      "Ward" : "中区",
      "Name" : "パーク６００福富町",
      "Address" : "長者町９丁目175番地",
      "lng" : 139.6281512,
      "lat" : 35.4447716,
      "AvailableTime" : "24時間365日"
    },
    {
      "Type" : "民間施設",
      "Ward" : "中区",
      "Name" : "ビューコート小港団地（ＵＲ都市機構）",
      "Address" : "小港町１丁目１番地２",
      "lng" : 139.6643074,
      "lat" : 35.4340785,
      "AvailableTime" : "24時間365日"
    },
    {
      "Type" : "民間施設",
      "Ward" : "中区",
      "Name" : "平山駐車場",
      "Address" : "福富町仲通42番地",
      "lng" : 139.6308205,
      "lat" : 35.4450188,
      "AvailableTime" : "24時間365日"
    },
    {
      "Type" : "民間施設",
      "Ward" : "中区",
      "Name" : "ブリーズベイホテル",
      "Address" : "花咲町1-22-2",
      "lng" : 139.6308786,
      "lat" : 35.4488461,
      "AvailableTime" : "24時間365日"
    },
    {
      "Type" : "民間施設",
      "Ward" : "中区",
      "Name" : "ホテルＪＡＬシティ関内横浜",
      "Address" : "山下町72番地",
      "lng" : 139.6444473,
      "lat" : 35.4452243,
      "AvailableTime" : "24時間365日"
    },
    {
      "Type" : "民間施設",
      "Ward" : "中区",
      "Name" : "ホテルニューグランド",
      "Address" : "山下町10番地",
      "lng" : 139.6495303,
      "lat" : 35.4449576,
      "AvailableTime" : "24時間365日"
    },
    {
      "Type" : "民間施設",
      "Ward" : "中区",
      "Name" : "ホテルモントレ横浜",
      "Address" : "山下町６番地１",
      "lng" : 139.6478693,
      "lat" : 35.4457353,
      "AvailableTime" : "24時間365日"
    },
    {
      "Type" : "民間施設",
      "Ward" : "中区",
      "Name" : "三菱重工業株式会社横浜製作所本牧工場",
      "Address" : "錦町12番地",
      "lng" : 139.6730288,
      "lat" : 35.4173418,
      "AvailableTime" : "24時間365日"
    },
    {
      "Type" : "民間施設",
      "Ward" : "中区",
      "Name" : "メルパルク横浜",
      "Address" : "山下町16番地",
      "lng" : 139.6514553,
      "lat" : 35.4434967,
      "AvailableTime" : "24時間365日"
    },
    {
      "Type" : "民間施設",
      "Ward" : "中区",
      "Name" : "モアレ山田町（ＵＲ都市機構）",
      "Address" : "山田町８番地２",
      "lng" : 139.6327456,
      "lat" : 35.4385056,
      "AvailableTime" : "24時間365日"
    },
    {
      "Type" : "民間施設",
      "Ward" : "中区",
      "Name" : "横浜伊勢佐木町ワシントンホテル",
      "Address" : "長者町５丁目53番地",
      "lng" : 139.6329566,
      "lat" : 35.4416719,
      "AvailableTime" : "24時間365日"
    },
    {
      "Type" : "民間施設",
      "Ward" : "中区",
      "Name" : "横浜関内ビル",
      "Address" : "港町２丁目６番地",
      "lng" : 139.6367062,
      "lat" : 35.4441327,
      "AvailableTime" : "7:00～21:30"
    },
    {
      "Type" : "民間施設",
      "Ward" : "中区",
      "Name" : "横浜桜木町ワシントンホテル",
      "Address" : "桜木町１丁目101番地１",
      "lng" : 139.6326979,
      "lat" : 35.4508125,
      "AvailableTime" : "24時間365日"
    },
    {
      "Type" : "民間施設",
      "Ward" : "中区",
      "Name" : "横浜パークプレイス",
      "Address" : "福富町東通３番地１",
      "lng" : 139.6318732,
      "lat" : 35.4448577,
      "AvailableTime" : "24時間365日"
    },
    {
      "Type" : "民間施設",
      "Ward" : "中区",
      "Name" : "横浜平和プラザホテル",
      "Address" : "太田町５丁目65番地",
      "lng" : 139.6358061,
      "lat" : 35.4487766,
      "AvailableTime" : "24時間365日"
    },
    {
      "Type" : "民間施設",
      "Ward" : "中区",
      "Name" : "横浜メディア・ビジネスセンター",
      "Address" : "太田町２丁目２３番地",
      "lng" : 139.6388559,
      "lat" : 35.44728509999999,
      "AvailableTime" : "8:00～20:00（土日祝日を除く）"
    },
    {
      "Type" : "民間施設",
      "Ward" : "中区",
      "Name" : "ローズホテル横浜",
      "Address" : "山下町77番地",
      "lng" : 139.6468555,
      "lat" : 35.4441466,
      "AvailableTime" : "24時間365日"
    },
    {
      "Type" : "民間施設",
      "Ward" : "中区",
      "Name" : "ワークピア横浜",
      "Address" : "山下町24番地１",
      "lng" : 139.6460805,
      "lat" : 35.4460631,
      "AvailableTime" : "9:00～17:00"
    },
    {
      "Type" : "民間施設",
      "Ward" : "中区",
      "Name" : "タイムズステーション横浜山下町",
      "Address" : "山下町28－1",
      "lng" : 127.6742941,
      "lat" : 26.2011468,
      "AvailableTime" : "8：00～20：00"
    },
    {
      "Type" : "民間施設",
      "Ward" : "中区",
      "Name" : "横浜中央ＹＭＣＡ",
      "Address" : "常盤町1－7",
      "lng" : 139.6389449,
      "lat" : 35.4446882,
      "AvailableTime" : "月～土　7:00～21:30\n日・祝日　7:00～18:30"
    },
    {
      "Type" : "民間施設",
      "Ward" : "中区",
      "Name" : "スーパーハリウッド伊勢佐木",
      "Address" : "伊勢佐木３丁目107番地２",
      "lng" : 139.6300178,
      "lat" : 35.4421413,
      "AvailableTime" : "9:00～23:00"
    },
    {
      "Type" : "民間施設",
      "Ward" : "保土ケ谷区",
      "Name" : "財団法人　横浜市水道会館",
      "Address" : "宮田町1-5-7",
      "lng" : 135.586383,
      "lat" : 34.8411088,
      "AvailableTime" : "24時間365日"
    },
    {
      "Type" : "民間施設",
      "Ward" : "磯子区",
      "Name" : "磯子駅前ビル住宅",
      "Address" : "森1-6-23",
      "lng" : 139.617122,
      "lat" : 35.3992251,
      "AvailableTime" : "24時間365日"
    },
    {
      "Type" : "民間施設",
      "Ward" : "磯子区",
      "Name" : "磯子団地（ＵＲ都市機構）",
      "Address" : "磯子一丁目３番地11",
      "lng" : 139.6233379,
      "lat" : 35.424941,
      "AvailableTime" : "24時間365日"
    },
    {
      "Type" : "民間施設",
      "Ward" : "磯子区",
      "Name" : "新杉田駅（シーサイドライン）",
      "Address" : "新杉田町8-1",
      "lng" : 139.620372,
      "lat" : 35.3859185,
      "AvailableTime" : "24時間365日"
    },
    {
      "Type" : "民間施設",
      "Ward" : "磯子区",
      "Name" : "葬儀の板橋 磯子奉斎殿　",
      "Address" : "磯子3-14-50",
      "lng" : 139.61923,
      "lat" : 35.4009222,
      "AvailableTime" : "9:00～17:30"
    },
    {
      "Type" : "民間施設",
      "Ward" : "磯子区",
      "Name" : "浜田ビル",
      "Address" : "磯子３丁目４番23号",
      "lng" : 139.6189717,
      "lat" : 35.403083,
      "AvailableTime" : "24時間365日"
    },
    {
      "Type" : "民間施設",
      "Ward" : "金沢区",
      "Name" : "株式会社ダイエー金沢八景店",
      "Address" : "泥亀一丁目27番地１号",
      "lng" : 139.6224195,
      "lat" : 35.333834,
      "AvailableTime" : "10:00～22:00"
    },
    {
      "Type" : "民間施設",
      "Ward" : "金沢区",
      "Name" : "金沢シーサイドタウン並木一丁目第一団地（ＵＲ都市機構）",
      "Address" : "並木一丁目",
      "lng" : 137.1016018,
      "lat" : 35.077165,
      "AvailableTime" : "24時間365日"
    },
    {
      "Type" : "民間施設",
      "Ward" : "金沢区",
      "Name" : "金沢シーサイドタウン並木一丁目第二団地（ＵＲ都市機構）",
      "Address" : "並木一丁目",
      "lng" : 137.1016018,
      "lat" : 35.077165,
      "AvailableTime" : "24時間365日"
    },
    {
      "Type" : "民間施設",
      "Ward" : "金沢区",
      "Name" : "南部市場駅（シーサイドライン）",
      "Address" : "鳥浜町 ",
      "lng" : 139.6449062,
      "lat" : 35.3813223,
      "AvailableTime" : "24時間365日"
    },
    {
      "Type" : "民間施設",
      "Ward" : "金沢区",
      "Name" : "鳥浜駅（シーサイドライン）",
      "Address" : "幸浦一丁目",
      "lng" : 139.6458,
      "lat" : 35.37203,
      "AvailableTime" : "24時間365日"
    },
    {
      "Type" : "民間施設",
      "Ward" : "金沢区",
      "Name" : "並木北駅（シーサイドライン）",
      "Address" : "幸浦一丁目 ",
      "lng" : 139.6458,
      "lat" : 35.37203,
      "AvailableTime" : "24時間365日"
    },
    {
      "Type" : "民間施設",
      "Ward" : "金沢区",
      "Name" : "並木中央駅（シーサイドライン）",
      "Address" : "幸浦二丁目",
      "lng" : 139.643712,
      "lat" : 35.358331,
      "AvailableTime" : "24時間365日"
    },
    {
      "Type" : "民間施設",
      "Ward" : "金沢区",
      "Name" : "幸浦駅（シーサイドライン）",
      "Address" : "幸浦二丁目",
      "lng" : 139.643712,
      "lat" : 35.358331,
      "AvailableTime" : "24時間365日"
    },
    {
      "Type" : "民間施設",
      "Ward" : "金沢区",
      "Name" : "産業振興センター駅（シーサイドライン）",
      "Address" : "福浦一丁目 ",
      "lng" : 140.8085869,
      "lat" : 41.3277056,
      "AvailableTime" : "24時間365日"
    },
    {
      "Type" : "民間施設",
      "Ward" : "金沢区",
      "Name" : "福浦駅（シーサイドライン）",
      "Address" : "福浦二丁目",
      "lng" : 139.648553,
      "lat" : 35.34963500000001,
      "AvailableTime" : "24時間365日"
    },
    {
      "Type" : "民間施設",
      "Ward" : "金沢区",
      "Name" : "市大医学部駅（シーサイドライン）",
      "Address" : "福浦三丁目",
      "lng" : 140.3572505,
      "lat" : 40.791071,
      "AvailableTime" : "24時間365日"
    },
    {
      "Type" : "民間施設",
      "Ward" : "金沢区",
      "Name" : "八景島駅（シーサイドライン）",
      "Address" : "海の公園",
      "lng" : 139.6351342,
      "lat" : 35.3395236,
      "AvailableTime" : "24時間365日"
    },
    {
      "Type" : "民間施設",
      "Ward" : "金沢区",
      "Name" : "海の公園柴口駅（シーサイドライン）",
      "Address" : "海の公園 ",
      "lng" : 139.6351342,
      "lat" : 35.3395236,
      "AvailableTime" : "24時間365日"
    },
    {
      "Type" : "民間施設",
      "Ward" : "金沢区",
      "Name" : "海の公園南口駅（シーサイドライン）",
      "Address" : "海の公園",
      "lng" : 139.6351342,
      "lat" : 35.3395236,
      "AvailableTime" : "24時間365日"
    },
    {
      "Type" : "民間施設",
      "Ward" : "金沢区",
      "Name" : "野島公園駅（シーサイドライン）",
      "Address" : "平潟町",
      "lng" : 140.7916161,
      "lat" : 36.8557367,
      "AvailableTime" : "24時間365日"
    },
    {
      "Type" : "民間施設",
      "Ward" : "金沢区",
      "Name" : "金沢八景駅（シーサイドライン）",
      "Address" : "瀬戸",
      "lng" : 134.041614,
      "lat" : 34.734291,
      "AvailableTime" : "24時間365日"
    },
    {
      "Type" : "民間施設",
      "Ward" : "金沢区",
      "Name" : "関東学院大学　金沢八景キャンパス　ベンネットホール",
      "Address" : "六浦東1-50-1",
      "lng" : 139.6248054,
      "lat" : 35.3231739,
      "AvailableTime" : "24時間365日"
    },
    {
      "Type" : "民間施設",
      "Ward" : "金沢区",
      "Name" : "ダイクマ テックランド横浜金沢店",
      "Address" : "富岡東二丁目４番29号",
      "lng" : 139.6403733,
      "lat" : 35.3777949,
      "AvailableTime" : "24時間365日"
    },
    {
      "Type" : "民間施設",
      "Ward" : "金沢区",
      "Name" : "独立行政法人海洋研究開発機構　横浜研究所",
      "Address" : "昭和町3173番25",
      "lng" : 139.6250495,
      "lat" : 35.3804137,
      "AvailableTime" : "24時間365日"
    },
    {
      "Type" : "民間施設",
      "Ward" : "金沢区",
      "Name" : "日本発条株式会社　横浜事業所",
      "Address" : "福浦三丁目10番地",
      "lng" : 139.6494559,
      "lat" : 35.3433996,
      "AvailableTime" : "24時間365日"
    },
    {
      "Type" : "民間施設",
      "Ward" : "金沢区",
      "Name" : "ビアレヨコハマ　本館・新館",
      "Address" : "並木2-13-7",
      "lng" : 139.6410706,
      "lat" : 35.3620165,
      "AvailableTime" : "24時間365日"
    },
    {
      "Type" : "民間施設",
      "Ward" : "金沢区",
      "Name" : "三菱重工業株式会社横浜製作所金沢工場",
      "Address" : "幸浦一丁目８番地１",
      "lng" : 139.6527251,
      "lat" : 35.3709268,
      "AvailableTime" : "24時間365日"
    },
    {
      "Type" : "民間施設",
      "Ward" : "金沢区",
      "Name" : "金沢文庫現業事務所",
      "Address" : "谷津町３８４",
      "lng" : 139.6219473,
      "lat" : 35.3435466,
      "AvailableTime" : "24時間365日"
    },
    {
      "Type" : "民間施設",
      "Ward" : "金沢区",
      "Name" : "マリーナプラザビル",
      "Address" : "白帆４－２",
      "lng" : 139.6446146,
      "lat" : 35.379617,
      "AvailableTime" : "３階フロア　月～金　9:00～18:00\n６階屋上部　9:00～21:00"
    },
    {
      "Type" : "公共施設",
      "Ward" : "鶴見区",
      "Name" : "入船小学校",
      "Address" : "浜町1-1-1",
      "lng" : 130.8112985,
      "lat" : 33.9054588,
      "AvailableTime" : "24時間365日"
    },
    {
      "Type" : "公共施設",
      "Ward" : "鶴見区",
      "Name" : "寛政中学校",
      "Address" : "寛政町２３番１号",
      "lng" : 139.6996022,
      "lat" : 35.5018876,
      "AvailableTime" : "24時間365日"
    },
    {
      "Type" : "公共施設",
      "Ward" : "鶴見区",
      "Name" : "高齢者保養研修施設ふれーゆ　",
      "Address" : "末広町1-15-2",
      "lng" : 139.6885039,
      "lat" : 35.4797267,
      "AvailableTime" : "４月～９月　9:00～21:00\n10月～３月　10:00～20:00"
    },
    {
      "Type" : "公共施設",
      "Ward" : "鶴見区",
      "Name" : "市営生麦住宅",
      "Address" : "生麦1-3-1",
      "lng" : 139.6638611,
      "lat" : 35.4920972,
      "AvailableTime" : "24時間365日"
    },
    {
      "Type" : "公共施設",
      "Ward" : "鶴見区",
      "Name" : "汐入小学校",
      "Address" : "汐入町2-36",
      "lng" : 139.6611236,
      "lat" : 35.2790971,
      "AvailableTime" : "24時間365日"
    },
    {
      "Type" : "公共施設",
      "Ward" : "鶴見区",
      "Name" : "下野谷小学校",
      "Address" : "下野谷町２丁目４９番",
      "lng" : 139.6814456,
      "lat" : 35.5001603,
      "AvailableTime" : "24時間365日"
    },
    {
      "Type" : "公共施設",
      "Ward" : "鶴見区",
      "Name" : "鶴見区役所",
      "Address" : "鶴見中央3-20-1",
      "lng" : 139.6823842,
      "lat" : 35.5083981,
      "AvailableTime" : "24時間365日"
    },
    {
      "Type" : "公共施設",
      "Ward" : "鶴見区",
      "Name" : "生麦小学校",
      "Address" : "生麦四丁目-15-1",
      "lng" : 139.6707799,
      "lat" : 35.4956747,
      "AvailableTime" : "24時間365日"
    },
    {
      "Type" : "公共施設",
      "Ward" : "鶴見区",
      "Name" : "横浜サイエンスフロンティア高等学校",
      "Address" : "小野町6",
      "lng" : 141.1522904,
      "lat" : 38.4064273,
      "AvailableTime" : "24時間365日"
    },
    {
      "Type" : "公共施設",
      "Ward" : "鶴見区",
      "Name" : "横浜市国際学生会館",
      "Address" : "本町通4-171-23",
      "lng" : 139.6850703,
      "lat" : 35.5003575,
      "AvailableTime" : "24時間365日"
    },
    {
      "Type" : "公共施設",
      "Ward" : "鶴見区",
      "Name" : "横浜税関　大黒埠頭出張所",
      "Address" : "大黒ふ頭15",
      "lng" : 139.685588,
      "lat" : 35.4607648,
      "AvailableTime" : "8:30～17:45\n（土日祝日及び12/29～1/3を除く）"
    },
    {
      "Type" : "公共施設",
      "Ward" : "鶴見区",
      "Name" : "潮田小学校",
      "Address" : "向井町３丁目８２−１",
      "lng" : 139.6905863,
      "lat" : 35.5060928,
      "AvailableTime" : "24時間365日"
    },
    {
      "Type" : "公共施設",
      "Ward" : "鶴見区",
      "Name" : "潮田中学校",
      "Address" : "向井町４丁目８３",
      "lng" : 139.6916889,
      "lat" : 35.5066899,
      "AvailableTime" : "24時間365日"
    },
    {
      "Type" : "公共施設",
      "Ward" : "神奈川区",
      "Name" : "神奈川区役所",
      "Address" : "広台太田町３－８ ",
      "lng" : 139.6294113,
      "lat" : 35.4769622,
      "AvailableTime" : "24時間365日"
    },
    {
      "Type" : "公共施設",
      "Ward" : "神奈川区",
      "Name" : "かながわ県民センター",
      "Address" : "鶴屋町2-24-2",
      "lng" : 139.6207177,
      "lat" : 35.4684632,
      "AvailableTime" : "24時間365日"
    },
    {
      "Type" : "公共施設",
      "Ward" : "神奈川区",
      "Name" : "神奈川小学校",
      "Address" : "東神奈川2-35-1",
      "lng" : 139.6356607,
      "lat" : 35.4775566,
      "AvailableTime" : "24時間365日"
    },
    {
      "Type" : "公共施設",
      "Ward" : "神奈川区",
      "Name" : "幸ケ谷小学校",
      "Address" : "幸ヶ谷1-1",
      "lng" : 139.630614,
      "lat" : 35.4715073,
      "AvailableTime" : "24時間365日"
    },
    {
      "Type" : "公共施設",
      "Ward" : "西区",
      "Name" : "岡野中学校",
      "Address" : "岡野２丁目１４-１",
      "lng" : 139.6121773,
      "lat" : 35.461839,
      "AvailableTime" : "24時間365日"
    },
    {
      "Type" : "公共施設",
      "Ward" : "西区",
      "Name" : "県立横浜平沼高等学校",
      "Address" : "岡野1-5-8",
      "lng" : 139.6148714,
      "lat" : 35.4615723,
      "AvailableTime" : "24時間365日"
    },
    {
      "Type" : "公共施設",
      "Ward" : "西区",
      "Name" : "平沼小学校",
      "Address" : "平沼2-11-36",
      "lng" : 139.6157103,
      "lat" : 35.4572006,
      "AvailableTime" : "24時間365日"
    },
    {
      "Type" : "公共施設",
      "Ward" : "西区",
      "Name" : "平沼集会所　",
      "Address" : "西平沼町5-70",
      "lng" : 139.6130828,
      "lat" : 35.458631,
      "AvailableTime" : "月～土　9:00～21:00\n日祝休日　9:00～17:00"
    },
    {
      "Type" : "公共施設",
      "Ward" : "西区",
      "Name" : "西区役所",
      "Address" : "中央一丁目５番10号",
      "lng" : 139.6168769,
      "lat" : 35.4536094,
      "AvailableTime" : "24時間365日"
    },
    {
      "Type" : "公共施設",
      "Ward" : "西区",
      "Name" : "西スポーツセンター　",
      "Address" : "浅間町4-340-1",
      "lng" : 139.6087055,
      "lat" : 35.4596309,
      "AvailableTime" : "月～土　7:30～23:00\n日祝休日　7:30～21:00"
    },
    {
      "Type" : "公共施設",
      "Ward" : "西区",
      "Name" : "横浜西合同庁舎",
      "Address" : "岡野２丁目１２－２０",
      "lng" : 139.6110802,
      "lat" : 35.4604808,
      "AvailableTime" : "24時間365日"
    },
    {
      "Type" : "公共施設",
      "Ward" : "中区",
      "Name" : "大鳥中学校",
      "Address" : "本牧原２２番１号",
      "lng" : 139.6692569,
      "lat" : 35.4238187,
      "AvailableTime" : "24時間365日"
    },
    {
      "Type" : "公共施設",
      "Ward" : "中区",
      "Name" : "開港記念会館",
      "Address" : "本町１丁目６番地",
      "lng" : 133.9200904,
      "lat" : 34.665236,
      "AvailableTime" : "9:00～21:00"
    },
    {
      "Type" : "公共施設",
      "Ward" : "中区",
      "Name" : "海上保安庁横浜海上防災基地",
      "Address" : "新港一丁目２番１号",
      "lng" : 139.6440441,
      "lat" : 35.4548426,
      "AvailableTime" : "24時間365日"
    },
    {
      "Type" : "公共施設",
      "Ward" : "中区",
      "Name" : "神奈川県横浜合同庁舎",
      "Address" : "山下町３２ ",
      "lng" : 139.6496887,
      "lat" : 35.4439717,
      "AvailableTime" : "月～金　8:30～17:00"
    },
    {
      "Type" : "公共施設",
      "Ward" : "中区",
      "Name" : "市営ビューコート小港",
      "Address" : "小港町1-1-5",
      "lng" : 139.6640435,
      "lat" : 35.4333174,
      "AvailableTime" : "24時間365日"
    },
    {
      "Type" : "公共施設",
      "Ward" : "中区",
      "Name" : "市営不老町住宅",
      "Address" : "不老町三丁目15-2",
      "lng" : 139.6353731,
      "lat" : 35.43994989999999,
      "AvailableTime" : "24時間365日"
    },
    {
      "Type" : "公共施設",
      "Ward" : "中区",
      "Name" : "市営ベイサイド新山下住宅 ",
      "Address" : "新山下三丁目14",
      "lng" : 139.6601882,
      "lat" : 35.4375585,
      "AvailableTime" : "24時間365日"
    },
    {
      "Type" : "公共施設",
      "Ward" : "中区",
      "Name" : "職能開発総合センター　",
      "Address" : "山下町253番地",
      "lng" : 139.644567,
      "lat" : 35.4407387,
      "AvailableTime" : "月～金　8:30～17:15"
    },
    {
      "Type" : "公共施設",
      "Ward" : "中区",
      "Name" : "中区役所",
      "Address" : "日本大通35番地",
      "lng" : 139.6422086,
      "lat" : 35.4447493,
      "AvailableTime" : "24時間365日"
    },
    {
      "Type" : "公共施設",
      "Ward" : "中区",
      "Name" : "中消防署",
      "Address" : "山吹町2-2",
      "lng" : 139.6310151,
      "lat" : 35.4398305,
      "AvailableTime" : "24時間365日"
    },
    {
      "Type" : "公共施設",
      "Ward" : "中区",
      "Name" : "本町小学校",
      "Address" : "花咲町３丁目８６ ",
      "lng" : 139.6286121,
      "lat" : 35.4507125,
      "AvailableTime" : "24時間365日"
    },
    {
      "Type" : "公共施設",
      "Ward" : "中区",
      "Name" : "本牧ふ頭総合ビル",
      "Address" : "本牧ふ頭1",
      "lng" : 139.6791366,
      "lat" : 35.4301178,
      "AvailableTime" : "24時間365日"
    },
    {
      "Type" : "公共施設",
      "Ward" : "中区",
      "Name" : "本牧南小学校",
      "Address" : "本牧元町44-1",
      "lng" : 139.6683959,
      "lat" : 35.4164614,
      "AvailableTime" : "24時間365日"
    },
    {
      "Type" : "公共施設",
      "Ward" : "中区",
      "Name" : "港中学校",
      "Address" : "山下町241番地",
      "lng" : 139.6431004,
      "lat" : 35.4413164,
      "AvailableTime" : "24時間365日"
    },
    {
      "Type" : "公共施設",
      "Ward" : "中区",
      "Name" : "横浜市研修センター",
      "Address" : "山下町72-1",
      "lng" : 139.6445473,
      "lat" : 35.4454326,
      "AvailableTime" : "24時間365日"
    },
    {
      "Type" : "公共施設",
      "Ward" : "中区",
      "Name" : "横浜市健康福祉総合センター\n(４･５･８･９･10階部分）",
      "Address" : "桜木町1-1",
      "lng" : 139.6315674,
      "lat" : 35.4501237,
      "AvailableTime" : "24時間365日"
    },
    {
      "Type" : "公共施設",
      "Ward" : "中区",
      "Name" : "横浜市役所",
      "Address" : "港町1-1",
      "lng" : 139.637309,
      "lat" : 35.4437578,
      "AvailableTime" : "24時間365日"
    },
    {
      "Type" : "公共施設",
      "Ward" : "中区",
      "Name" : "横浜税関　本関",
      "Address" : "海岸通１丁目１番地",
      "lng" : 139.6447693,
      "lat" : 35.4484322,
      "AvailableTime" : "8:30～17:45\n（土日祝日及び12/29～1/3を除く）"
    },
    {
      "Type" : "公共施設",
      "Ward" : "中区",
      "Name" : "横浜税関　本牧埠頭出張所",
      "Address" : "本牧ふ頭2",
      "lng" : 139.6713401,
      "lat" : 35.4332591,
      "AvailableTime" : "8:30～17:45\n（土日祝日及び12/29～1/3を除く）"
    },
    {
      "Type" : "公共施設",
      "Ward" : "中区",
      "Name" : "横浜税関　山下埠頭出張所",
      "Address" : "山下町279-1",
      "lng" : 139.6588823,
      "lat" : 35.4464825,
      "AvailableTime" : "8:30～17:45\n（土日祝日及び12/29～1/3を除く）"
    },
    {
      "Type" : "公共施設",
      "Ward" : "中区",
      "Name" : "横浜第２合同庁舎（財務省横浜財務事務所管理）",
      "Address" : "北仲通５丁目57番地",
      "lng" : 139.6371309,
      "lat" : 35.4507708,
      "AvailableTime" : "24時間365日"
    },
    {
      "Type" : "公共施設",
      "Ward" : "中区",
      "Name" : "吉田中学校",
      "Address" : "羽衣町3-84",
      "lng" : 139.6328954,
      "lat" : 35.4429996,
      "AvailableTime" : "24時間365日"
    },
    {
      "Type" : "公共施設",
      "Ward" : "南区",
      "Name" : "南吉田小学校",
      "Address" : "高根町2-14",
      "lng" : 139.6266571,
      "lat" : 35.4366087,
      "AvailableTime" : "24時間365日"
    },
    {
      "Type" : "公共施設",
      "Ward" : "南区",
      "Name" : "日枝小学校",
      "Address" : "山王町５丁目３１",
      "lng" : 139.6166247,
      "lat" : 35.4355921,
      "AvailableTime" : "24時間365日"
    },
    {
      "Type" : "公共施設",
      "Ward" : "南区",
      "Name" : "共進中学校",
      "Address" : "東蒔田町１−５",
      "lng" : 139.6168358,
      "lat" : 35.4326926,
      "AvailableTime" : "24時間365日"
    },
    {
      "Type" : "公共施設",
      "Ward" : "南区",
      "Name" : "南太田小学校",
      "Address" : "南太田１丁目１７−１",
      "lng" : 139.6110032,
      "lat" : 35.4354727,
      "AvailableTime" : "24時間365日"
    },
    {
      "Type" : "公共施設",
      "Ward" : "磯子区",
      "Name" : "磯子区役所",
      "Address" : "磯子3-5-1",
      "lng" : 139.6185495,
      "lat" : 35.4023887,
      "AvailableTime" : "24時間365日"
    },
    {
      "Type" : "公共施設",
      "Ward" : "磯子区",
      "Name" : "磯子小学校",
      "Address" : "久木町１１－１",
      "lng" : 139.6221296,
      "lat" : 35.4144009,
      "AvailableTime" : "24時間365日"
    },
    {
      "Type" : "公共施設",
      "Ward" : "磯子区",
      "Name" : "磯子消防署",
      "Address" : "磯子二丁目1-3",
      "lng" : 139.6021239,
      "lat" : 35.3854124,
      "AvailableTime" : "24時間365日"
    },
    {
      "Type" : "公共施設",
      "Ward" : "磯子区",
      "Name" : "磯子地区センター　",
      "Address" : "磯子3-1-41",
      "lng" : 139.6209075,
      "lat" : 35.4055411,
      "AvailableTime" : "月～土　9:00～21:00\n日祝休日　9:00～17:00"
    },
    {
      "Type" : "公共施設",
      "Ward" : "磯子区",
      "Name" : "市営磯子住宅",
      "Address" : "森三丁目1-19",
      "lng" : 139.6157445,
      "lat" : 35.3950117,
      "AvailableTime" : "24時間365日"
    },
    {
      "Type" : "公共施設",
      "Ward" : "磯子区",
      "Name" : "市営滝頭住宅",
      "Address" : "滝頭三丁目8-6",
      "lng" : 139.625824,
      "lat" : 35.418529,
      "AvailableTime" : "24時間365日"
    },
    {
      "Type" : "公共施設",
      "Ward" : "磯子区",
      "Name" : "新杉田地域ケアプラザ　",
      "Address" : "新杉田町８−７",
      "lng" : 139.6205525,
      "lat" : 35.3855713,
      "AvailableTime" : "月～土　9:00～21:00\n日祝休日　9:00～17:00"
    },
    {
      "Type" : "公共施設",
      "Ward" : "磯子区",
      "Name" : "杉田小学校",
      "Address" : "杉田一丁目８番１号",
      "lng" : 139.6167668,
      "lat" : 35.3855545,
      "AvailableTime" : "24時間365日"
    },
    {
      "Type" : "公共施設",
      "Ward" : "磯子区",
      "Name" : "杉田地区センター",
      "Address" : "杉田一丁目17番１号",
      "lng" : 139.6162975,
      "lat" : 35.38386029999999,
      "AvailableTime" : "月～土　9:00～21:00\n日祝休日　9:00～17:00"
    },
    {
      "Type" : "公共施設",
      "Ward" : "磯子区",
      "Name" : "根岸小学校",
      "Address" : "西町２番４６号",
      "lng" : 139.6329095,
      "lat" : 35.4177476,
      "AvailableTime" : "24時間365日"
    },
    {
      "Type" : "公共施設",
      "Ward" : "磯子区",
      "Name" : "根岸中学校",
      "Address" : "西町１７番１３号",
      "lng" : 141.5087397,
      "lat" : 43.2218354,
      "AvailableTime" : "24時間365日"
    },
    {
      "Type" : "公共施設",
      "Ward" : "磯子区",
      "Name" : "森東小学校",
      "Address" : "森1-4",
      "lng" : 136.8156255,
      "lat" : 35.2133206,
      "AvailableTime" : "24時間365日"
    },
    {
      "Type" : "公共施設",
      "Ward" : "磯子区",
      "Name" : "横浜市消防職員待機宿舎杉田寮(杉田消防出張所)",
      "Address" : "中原一丁目1-9",
      "lng" : 139.6173444,
      "lat" : 35.3892763,
      "AvailableTime" : "24時間365日"
    },
    {
      "Type" : "公共施設",
      "Ward" : "金沢区",
      "Name" : "いきいきセンター金沢",
      "Address" : "泥亀1-21-5",
      "lng" : 139.6217779,
      "lat" : 35.3392056,
      "AvailableTime" : "月～土　9:00～21:00\n日祝休日　9:00～17:00"
    },
    {
      "Type" : "公共施設",
      "Ward" : "金沢区",
      "Name" : "金沢区役所",
      "Address" : "泥亀二丁目9番1号",
      "lng" : 139.6244637,
      "lat" : 35.3372726,
      "AvailableTime" : "24時間365日"
    },
    {
      "Type" : "公共施設",
      "Ward" : "金沢区",
      "Name" : "金沢高等学校",
      "Address" : "瀬戸22-1",
      "lng" : 139.618792,
      "lat" : 35.3349449,
      "AvailableTime" : "24時間365日"
    },
    {
      "Type" : "公共施設",
      "Ward" : "金沢区",
      "Name" : "金沢小学校",
      "Address" : "町屋町26-26",
      "lng" : 139.629716,
      "lat" : 35.3356839,
      "AvailableTime" : "24時間365日"
    },
    {
      "Type" : "公共施設",
      "Ward" : "金沢区",
      "Name" : "県立金沢総合高等学校",
      "Address" : "富岡東6-34ｰ1",
      "lng" : 139.6349156,
      "lat" : 35.366213,
      "AvailableTime" : "24時間365日"
    },
    {
      "Type" : "公共施設",
      "Ward" : "金沢区",
      "Name" : "市営金沢住宅（高層棟）",
      "Address" : "並木一丁目5",
      "lng" : 136.8532289,
      "lat" : 35.1548676,
      "AvailableTime" : "24時間365日"
    },
    {
      "Type" : "公共施設",
      "Ward" : "金沢区",
      "Name" : "市営金沢第二住宅",
      "Address" : "並木一丁目1",
      "lng" : 139.4686129,
      "lat" : 35.7996715,
      "AvailableTime" : "24時間365日"
    },
    {
      "Type" : "公共施設",
      "Ward" : "金沢区",
      "Name" : "瀬ケ崎小学校",
      "Address" : "六浦東3-2-1",
      "lng" : 139.6201641,
      "lat" : 35.3194491,
      "AvailableTime" : "24時間365日"
    },
    {
      "Type" : "公共施設",
      "Ward" : "金沢区",
      "Name" : "中央卸売市場南部市場　水産棟",
      "Address" : "鳥浜町1番地の1",
      "lng" : 139.6353903,
      "lat" : 35.381997,
      "AvailableTime" : "24時間365日"
    },
    {
      "Type" : "公共施設",
      "Ward" : "金沢区",
      "Name" : "中央卸売市場南部市場　青果棟",
      "Address" : "鳥浜町1番地の1",
      "lng" : 139.6353903,
      "lat" : 35.381997,
      "AvailableTime" : "24時間365日"
    },
    {
      "Type" : "公共施設",
      "Ward" : "金沢区",
      "Name" : "並木第一小学校",
      "Address" : "並木1-7-1",
      "lng" : 139.6389041,
      "lat" : 35.3727956,
      "AvailableTime" : "24時間365日"
    },
    {
      "Type" : "公共施設",
      "Ward" : "金沢区",
      "Name" : "並木中央小学校",
      "Address" : "並木一丁目２５番１号",
      "lng" : 139.6411872,
      "lat" : 35.3666687,
      "AvailableTime" : "24時間365日"
    },
    {
      "Type" : "公共施設",
      "Ward" : "金沢区",
      "Name" : "八景小学校",
      "Address" : "泥亀1-21-2",
      "lng" : 139.621989,
      "lat" : 35.3386918,
      "AvailableTime" : "24時間365日"
    },
    {
      "Type" : "公共施設",
      "Ward" : "金沢区",
      "Name" : "六浦地区センター",
      "Address" : "六浦5-20-2",
      "lng" : 139.6121121,
      "lat" : 35.3256759,
      "AvailableTime" : "月～土　9:00～21:00\n日祝休日　9:00～17:00"
    },
    {
      "Type" : "公共施設",
      "Ward" : "金沢区",
      "Name" : "六浦中学校",
      "Address" : "六浦1丁目24番4号",
      "lng" : 139.617756,
      "lat" : 35.3246652,
      "AvailableTime" : "24時間365日"
    },
    {
      "Type" : "公共施設",
      "Ward" : "金沢区",
      "Name" : "柳町コミュニティハウス　",
      "Address" : "柳町１－３",
      "lng" : 138.8616031,
      "lat" : 35.1159995,
      "AvailableTime" : "月～土　9:00～21:00\n日祝休日　9:00～17:00"
    },
    {
      "Type" : "公共施設",
      "Ward" : "金沢区",
      "Name" : "柳町地域ケアプラザ",
      "Address" : "柳町１－４",
      "lng" : 139.6211363,
      "lat" : 35.3262291,
      "AvailableTime" : "月～土　9:00～21:00\n日祝休日　9:00～17:00"
    },
    {
      "Type" : "公共施設",
      "Ward" : "金沢区",
      "Name" : "市営金沢柴町住宅",
      "Address" : "柴町366",
      "lng" : 139.6417039,
      "lat" : 35.3436856,
      "AvailableTime" : "24時間365日"
    },
    {
      "Type" : "公共施設",
      "Ward" : "金沢区",
      "Name" : "県営平潟団地",
      "Address" : "平潟町17",
      "lng" : 140.7959186,
      "lat" : 36.8553009,
      "AvailableTime" : "24時間365日"
    },
    {
      "Type" : "公共施設",
      "Ward" : "金沢区",
      "Name" : "野島公園内津波避難施設",
      "Address" : "野島町23",
      "lng" : 137.3850699,
      "lat" : 36.7025087,
      "AvailableTime" : "24時間365日"
    }
  ]
}